City_ID,City,Lat,Lng,Max Temp,Humidity,Cloudiness,Wind Speed,Country,Date
0,puerto natales,-51.7236,-72.4875,10.11,93,100,1.82,CL,1734312410
1,uturoa,-16.7333,-151.4333,26.49,81,95,4.05,PF,1734312411
2,grytviken,-54.2811,-36.5092,5.54,72,100,1.93,GS,1734312412
3,adamstown,-25.066,-130.1015,22.74,67,79,4.21,PN,1734312413
4,shahba,32.8551,36.629,5.65,26,8,2.56,SY,1734312414
5,san antonio de pale,-1.4014,5.6325,26.68,84,100,2.96,GQ,1734312415
6,alaghsas,17.0187,8.0168,17.36,22,28,5.53,NE,1734312416
7,lompoc,34.6391,-120.4579,13.9,75,0,4.12,US,1734312417
8,buruenesti,45.3167,26.35,1.8,64,0,5.32,RO,1734312419
9,mokokchung,26.3333,94.5333,11.34,54,0,1.7,IN,1734312420
10,port elizabeth,-33.918,25.5701,17.16,93,100,3.6,ZA,1734312218
11,ilulissat,69.2167,-51.1,-8.99,73,100,7.2,GL,1734312422
12,hastings,50.8552,0.5729,11.06,43,100,8.9,GB,1734312423
13,vilyuchinsk,52.9306,158.4028,-5.85,81,31,4.17,RU,1734312424
14,hermanus,-34.4187,19.2345,14.75,61,5,2.47,ZA,1734312425
15,richards bay,-28.783,32.0377,23.96,72,94,9.11,ZA,1734312427
16,nova vicosa,-17.8919,-39.3719,25.45,86,99,5.4,BR,1734312394
17,alto araguaia,-17.3147,-53.2153,20.45,93,100,0.33,BR,1734312430
18,port-aux-francais,-49.35,70.2167,4.79,80,23,13.28,TF,1734312431
19,bethel,41.3712,-73.414,1.42,72,40,1.54,US,1734312432
20,ancud,-41.8697,-73.8203,13.25,87,66,1.16,CL,1734312433
21,edinburgh of the seven seas,-37.0676,-12.3116,14.08,71,100,6.36,SH,1734312434
22,ribeira grande,38.5167,-28.7,17.65,89,72,3.13,PT,1734312435
23,al kharijah,25.4514,30.5464,12.16,47,25,2.95,EG,1734312436
24,lautaro,-38.5167,-72.45,12.24,75,0,1.82,CL,1734312437
25,san andres,12.5847,-81.7006,26.01,78,40,6.69,CO,1734312438
26,broome,42.2506,-75.833,0.74,91,100,5.66,US,1734312439
27,ixtapa-zihuatanejo,17.6333,-101.55,29.05,65,40,0.0,MX,1734312440
28,waitangi,-43.9535,-176.5597,15.7,89,100,5.13,NZ,1734312193
29,sikeston,36.8767,-89.5879,10.96,100,100,1.54,US,1734312390
30,plettenberg bay,-34.0527,23.3716,15.87,78,100,1.79,ZA,1734312444
31,lospalos,-8.5186,127.0025,27.53,76,100,1.36,TL,1734312445
32,afaahiti,-17.75,-149.2833,25.62,81,100,5.89,PF,1734312446
33,kiunga,-6.1219,141.2906,28.14,80,100,2.46,PG,1734312447
34,lihue,21.9789,-159.3672,25.77,83,20,4.63,US,1734312448
35,labrador city,52.9463,-66.9114,-9.34,59,40,4.63,CA,1734312449
36,talnakh,69.4865,88.3972,-6.22,93,100,10.77,RU,1734312450
37,kruisfontein,-34.0033,24.7314,14.34,81,70,2.72,ZA,1734312451
38,kodiak,57.79,-152.4072,1.73,87,75,2.57,US,1734312452
39,praia da vitoria,38.7333,-27.0667,18.14,94,75,3.12,PT,1734312454
40,rosarito,32.3333,-117.0333,14.41,77,0,4.5,MX,1734312455
41,koungou,-12.7336,45.2042,27.84,78,75,6.17,YT,1734312456
42,yellowknife,62.456,-114.3525,-25.71,76,75,1.54,CA,1734312457
43,constantia,44.1833,28.65,1.5,74,0,6.17,RO,1734312458
44,dawei,14.0833,98.2,23.8,57,22,5.67,MM,1734312459
45,rongelap,11.1635,166.8941,27.44,81,24,10.23,MH,1734312460
46,shingu,33.7333,135.9833,10.29,60,6,3.49,JP,1734312461
47,minas de marcona,-15.2119,-75.1103,15.48,82,45,5.04,PE,1734312462
48,utrik,11.2278,169.8474,27.37,82,32,10.25,MH,1734312463
49,ath thawrah,35.8469,38.5443,6.28,35,67,3.69,SY,1734312465
50,vorkuta,67.5,64.0,-16.03,97,100,2.87,RU,1734312466
51,verrettes,19.05,-72.4667,24.3,87,29,1.09,HT,1734312467
52,bellary,15.15,76.9333,16.58,87,95,0.74,IN,1734312468
53,iqaluit,63.7506,-68.5145,-11.15,85,75,7.2,CA,1734312469
54,moussoro,13.6408,16.4901,18.26,22,88,6.71,TD,1734312470
55,longyearbyen,78.2186,15.6401,-7.09,68,20,11.83,SJ,1734312472
56,ushuaia,-54.8,-68.3,7.81,61,20,10.29,AR,1734312366
57,gadzhiyevo,69.2551,33.3362,-17.67,99,87,5.45,RU,1734312475
58,punta arenas,-53.15,-70.9167,13.06,47,40,9.77,CL,1734312476
59,karratha,-20.7377,116.8463,35.55,41,27,6.45,AU,1734312477
60,kijang,35.2442,129.2139,2.85,47,0,3.73,KR,1734312478
61,invercargill,-46.4,168.35,12.79,65,91,4.02,NZ,1734312479
62,bredasdorp,-34.5322,20.0403,12.87,62,42,2.11,ZA,1734312480
63,tazovsky,67.4667,78.7,-11.8,90,100,10.74,RU,1734312481
64,envira,-7.3,-70.2167,23.16,99,100,0.86,BR,1734312482
65,bilibino,68.0546,166.4372,-20.95,97,100,1.43,RU,1734312483
66,kapuskasing,49.4169,-82.4331,-1.0,86,100,4.63,CA,1734312484
67,college,64.8569,-147.8028,-33.01,70,20,2.06,US,1734312485
68,kirensk,57.7853,108.1119,-26.04,100,70,0.55,RU,1734312487
69,onega,63.9061,38.1404,-20.65,99,39,2.14,RU,1734312488
70,puerto ayora,-0.7393,-90.3518,22.32,86,86,3.02,EC,1734312489
71,lerwick,60.1545,-1.1494,6.72,69,100,13.85,GB,1734312490
72,papao,-17.75,-149.55,29.82,72,100,4.75,PF,1734312491
73,jamestown,42.097,-79.2353,1.12,97,100,5.14,US,1734312492
74,banjar,-8.19,114.9675,25.68,99,100,2.04,ID,1734312384
75,lebu,-37.6167,-73.65,12.81,97,20,4.76,CL,1734312495
76,namibe,-15.1961,12.1522,22.54,75,56,3.25,AO,1734312496
77,zolochiv,49.806,24.8944,1.03,95,100,7.81,UA,1734312497
78,chissamba,-12.1667,17.3333,17.42,96,100,1.11,AO,1734312498
79,port mathurin,-19.6833,63.4167,24.62,74,100,8.4,MU,1734312499
80,santa rita,-7.1139,-34.9781,27.37,83,40,3.09,BR,1734312500
81,hawaiian paradise park,19.5933,-154.9731,26.73,72,20,5.14,US,1734312501
82,mahina,-17.5065,-149.489,29.87,74,75,5.66,PF,1734312502
83,badger,64.8,-147.5333,-33.05,74,0,2.06,US,1734312503
84,codrington,-38.2667,141.9667,38.9,16,10,12.67,AU,1734312504
85,olonkinbyen,70.9221,-8.7187,-0.94,89,100,9.68,SJ,1734312315
86,anna regina,7.2644,-58.5077,26.02,85,100,3.32,GY,1734312507
87,arraial do cabo,-22.9661,-42.0278,24.62,84,55,6.93,BR,1734312508
88,west end,26.6833,-78.9667,23.88,75,68,12.82,BS,1734312509
89,nova sintra,14.8667,-24.7167,25.53,76,100,4.05,CV,1734312510
90,casablanca,33.5928,-7.6192,15.18,77,100,0.89,MA,1734312511
91,hilo,19.7297,-155.09,26.85,70,20,5.14,US,1734312512
92,kinkala,-4.3614,14.7644,22.46,95,100,1.02,CG,1734312513
93,acarau,-2.8856,-40.12,26.65,82,100,6.56,BR,1734312514
94,udachny,66.4167,112.4,-29.97,99,37,1.98,RU,1734312515
95,tezu,27.9167,96.1667,14.85,37,0,1.67,IN,1734312516
96,ampanihy,-24.7,44.75,25.61,56,99,3.46,MG,1734312518
97,parabel',58.6978,81.4825,-13.52,86,100,6.26,RU,1734312519
98,tazacorte,28.629,-17.9293,27.54,18,0,11.32,ES,1734312520
99,dawson creek,55.7666,-120.2362,-25.2,77,0,1.03,CA,1734312521
100,lone grove,34.1754,-97.2628,18.32,95,75,2.06,US,1734312522
101,sosnovo,60.5514,30.2144,-12.39,98,77,1.56,RU,1734312523
102,chinde,26.8212,87.7095,14.37,51,0,2.45,NP,1734312524
103,sarupathar,26.1984,93.8094,12.52,80,0,0.76,IN,1734312525
104,weno,7.4515,151.8468,29.97,94,100,4.63,FM,1734312527
105,lagunas,-5.2269,-75.6753,23.39,98,100,1.24,PE,1734312529
106,alice springs,-23.7,133.8833,34.75,34,23,6.17,AU,1734312530
107,happy valley-goose bay,53.3168,-60.3315,-3.83,54,75,3.6,CA,1734312531
108,guerrero negro,27.9769,-114.0611,15.68,84,0,5.41,MX,1734312286
109,nemuro,43.3236,145.575,-2.41,59,1,9.73,JP,1734312533
110,belyy yar,53.6039,91.3903,-14.06,85,100,1.0,RU,1734312534
111,douglas,41.3,-96.167,4.6,94,0,2.06,US,1734312367
112,margaret river,-33.95,115.0667,17.41,58,42,5.14,AU,1734312536
113,as sulayyil,20.4607,45.5779,10.42,22,0,3.35,SA,1734312537
114,isafjordur,66.0755,-23.124,-6.01,88,100,3.75,IS,1734312538
115,sekong,-6.3996,106.0252,26.04,90,100,2.39,ID,1734312539
116,hithadhoo,-0.6,73.0833,27.99,80,19,6.5,MV,1734312541
117,cambria,35.5641,-121.0808,13.36,78,12,1.79,US,1734312542
118,the bottom,17.6259,-63.2492,25.49,74,4,6.18,BQ,1734312543
119,tolanaro,-25.0319,46.9987,23.84,74,1,7.63,MG,1734312544
120,fort bragg,35.139,-79.006,13.15,78,100,2.06,US,1734312545
121,emerald,-23.5333,148.1667,32.41,46,84,8.31,AU,1734312546
122,somerset,40.5668,-74.5496,2.94,78,100,0.45,US,1734312547
123,lisala,2.15,21.5167,22.98,80,100,0.44,CD,1734312548
124,blackmans bay,-43.0167,147.3167,24.18,58,94,0.45,AU,1734312550
125,tobruk,32.0836,23.9764,15.04,61,1,4.87,LY,1734312551
126,carnarvon,-24.8667,113.6333,24.66,45,0,10.45,AU,1734312552
127,taesal-li,36.9714,126.4542,2.81,56,79,1.0,KR,1734312553
128,portrush,55.1959,-6.6493,11.02,79,100,10.56,GB,1734312554
129,albany,42.6001,-73.9662,-0.21,70,100,1.34,US,1734312400
130,thompson,55.7435,-97.8558,-8.91,92,100,5.14,CA,1734312556
131,kincardine,56.0667,-3.7167,12.15,85,100,9.86,GB,1734312557
132,sant'agata di militello,38.0679,14.6327,10.78,86,70,1.27,IT,1734312558
133,krotovka,53.2858,51.1686,-3.58,88,100,9.72,RU,1734312559
134,port sudan,19.6175,37.2164,23.76,63,5,6.12,SD,1734312560
135,sirdaryo,40.8436,68.6617,-13.0,90,4,2.01,UZ,1734312561
136,vorgashor,67.5833,63.95,-15.65,97,100,3.14,RU,1734312562
137,mangrol,21.1167,70.1167,19.49,35,0,3.74,IN,1734312564
138,karachi,24.9056,67.0822,9.9,53,0,2.06,PK,1734312388
139,whitehorse,60.7161,-135.0538,-16.1,98,100,1.24,CA,1734312566
140,jayapura,-2.5333,140.7,29.66,77,100,2.34,ID,1734312567
141,saint-joseph,-21.3667,55.6167,23.21,80,15,4.82,RE,1734312568
142,taipei,25.0478,121.5319,15.6,50,75,4.63,TW,1734312352
143,vadso,70.0744,29.7487,-10.91,85,100,5.14,NO,1734312571
144,alofi,-19.0595,-169.9187,28.94,61,75,5.66,NU,1734312572
145,auki,-8.7676,160.7034,28.92,80,62,3.05,SB,1734312573
146,disa,24.25,72.1667,13.76,21,0,1.98,IN,1734312574
147,asha,54.9973,57.2722,-6.66,94,100,6.0,RU,1734312576
148,stanley,54.868,-1.6985,10.29,84,100,8.75,GB,1734312578
149,kailua-kona,19.6406,-155.9956,26.98,78,75,6.17,US,1734312579
150,mugia,43.1041,-9.2179,11.36,64,100,3.11,ES,1734312580
151,keflavik,64.0049,-22.5624,-0.76,93,40,3.6,IS,1734312581
152,enewetak,11.3474,162.3373,27.69,81,6,10.15,MH,1734312582
153,kingston,17.997,-76.7936,26.53,83,40,2.06,JM,1734312400
154,zhanaozen,43.3,52.8,-1.7,56,92,11.81,KZ,1734312584
155,beykonak,36.3257,30.303,15.95,83,100,6.29,TR,1734312588
156,show low,34.2542,-110.0298,5.16,27,0,1.54,US,1734312589
157,northam,51.0333,-4.2167,11.19,84,98,7.74,GB,1734312590
158,cockburn town,21.4612,-71.1419,26.39,83,20,8.79,TC,1734312591
159,haiku-pauwela,20.9219,-156.3051,27.01,69,40,10.73,US,1734312592
160,paris,48.8534,2.3488,10.6,95,100,4.12,FR,1734312591
161,bayji,34.9311,43.487,6.09,33,100,3.37,IQ,1734312594
162,kingscliff,-28.2667,153.5667,27.89,74,75,9.77,AU,1734312595
163,tiksi,71.6872,128.8694,-22.06,95,100,3.82,RU,1734312596
164,coahuayana de hidalgo,18.7,-103.6583,25.4,84,100,0.78,MX,1734312597
165,usinsk,65.9939,57.5281,-22.39,100,97,3.31,RU,1734312598
166,ouallam,14.3188,2.0866,19.44,15,0,5.07,NE,1734312599
167,wailua homesteads,22.0669,-159.378,25.44,85,20,4.63,US,1734312601
168,muroto-misakicho,33.2833,134.15,11.06,66,49,4.98,JP,1734312602
169,anadyr,64.75,177.4833,-4.72,79,75,9.0,RU,1734312603
170,enoch,37.7733,-113.0244,4.14,33,0,2.06,US,1734312604
171,sisimiut,66.9395,-53.6735,-10.49,85,30,4.24,GL,1734312605
172,port-vila,-17.7338,168.3219,31.78,62,75,4.12,VU,1734312606
173,tannum sands,-23.9504,151.3693,28.94,70,40,7.72,AU,1734312607
174,ramkola,26.9042,83.8411,13.64,55,0,1.84,IN,1734312608
175,fort st. john,56.2499,-120.8529,-22.06,71,20,2.06,CA,1734312605
176,salym,60.0625,71.4789,-15.88,88,100,5.01,RU,1734312611
177,okhotsk,59.3833,143.3,-14.31,76,86,7.41,RU,1734312612
178,georgetown,5.4112,100.3354,27.96,78,20,3.09,MY,1734312529
179,puerto baquerizo moreno,-0.9,-89.6,21.97,88,100,3.26,EC,1734312608
180,chimoio,-19.1164,33.4833,19.37,92,98,0.91,MZ,1734312615
181,manaure,11.7751,-72.4445,26.64,74,25,2.96,CO,1734312616
182,avarua,-21.2078,-159.775,28.03,78,1,4.63,CK,1734312617
183,saipan,15.1355,145.701,31.39,72,40,9.77,MP,1734312618
184,egilsstadir,65.2653,-14.3948,-5.05,80,20,0.0,IS,1734312619
185,nabire,-3.3667,135.4833,27.91,79,100,1.13,ID,1734312620
186,klyuchi,52.2667,79.1667,-10.81,85,13,6.8,RU,1734312621
187,dudinka,69.4058,86.1778,-7.27,80,97,10.37,RU,1734312623
188,machico,32.7,-16.7667,21.51,86,75,0.0,PT,1734312624
189,gangtok,27.3333,88.6167,13.87,41,0,1.54,IN,1734312625
190,port alfred,-33.5906,26.891,16.77,93,94,0.45,ZA,1734312626
191,taulaga,-11.0553,-171.0883,28.05,78,53,5.42,AS,1734312627
192,lushun,38.8,121.2667,3.12,46,56,4.75,CN,1734312628
193,newman,37.3138,-121.0208,11.13,81,99,0.35,US,1734312629
194,chakari,-18.0629,29.8925,21.81,61,21,2.4,ZW,1734312630
195,nago,26.5881,127.9761,17.46,52,92,4.22,JP,1734312631
196,posto fiscal rolim de moura,-13.0833,-62.2667,22.89,94,35,1.12,BR,1734312632
197,burang,30.25,81.1667,-3.86,22,0,2.95,CN,1734312633
198,mokhotlong,-29.2894,29.0675,15.1,67,100,2.85,LS,1734312634
199,corumba,-19.0092,-57.6533,24.37,59,0,0.94,BR,1734312637
200,west island,-12.1568,96.8225,25.99,94,75,4.63,CC,1734312638
201,pacific grove,36.6177,-121.9166,12.46,88,99,2.24,US,1734312536
202,livingston,55.9029,-3.5226,11.2,87,100,10.8,GB,1734312495
203,manukan,8.5333,123.1,26.95,87,92,6.53,PH,1734312641
204,boisar,19.8,72.75,19.84,32,3,2.17,IN,1734312642
205,kismayo,-0.3582,42.5454,25.57,82,28,7.02,SO,1734312643
206,vila franca do campo,37.7167,-25.4333,18.27,99,100,7.08,PT,1734312644
207,coari,-4.085,-63.1414,25.07,84,100,1.24,BR,1734312471
208,ust-nera,64.5667,143.2,-26.25,96,99,1.27,RU,1734312646
209,paulo afonso,-9.4061,-38.2147,24.94,74,90,3.57,BR,1734312647
210,papatowai,-46.5619,169.4708,11.79,56,44,4.66,NZ,1734312648
211,yuzhno-kurilsk,44.0306,145.8556,-1.42,49,69,9.85,RU,1734312650
212,callao,-12.0667,-77.15,21.51,77,20,5.14,PE,1734312651
213,sebastopol,44.6,33.5333,6.11,48,99,0.89,UA,1734312603
214,hamilton,39.1834,-84.5333,10.79,95,75,2.57,US,1734312653
215,rawson,-43.3002,-65.1023,19.16,68,0,4.12,AR,1734312654
216,eenhana,-17.4667,16.3333,22.72,58,14,1.17,NA,1734312655
217,muynoq,43.7683,59.0214,-3.62,65,30,6.52,UZ,1734312656
218,plastun,44.7561,136.2939,-11.66,47,50,5.99,RU,1734312657
219,banda aceh,5.5577,95.3222,27.39,79,24,1.4,ID,1734312658
220,tomah,43.9786,-90.504,3.88,100,100,2.57,US,1734312659
221,taoudenni,22.6783,-3.9836,17.27,20,0,5.32,ML,1734312660
222,polyarnyy,69.1989,33.4478,-16.32,92,80,5.68,RU,1734312663
223,kuanda,56.3161,116.0806,-25.04,95,53,0.33,RU,1734312664
224,san-pedro,4.7485,-6.6363,25.76,88,6,2.5,CI,1734312665
225,nar'yan-mar,67.6713,53.087,-18.97,92,83,4.42,RU,1734312666
226,farrukhnagar,17.0778,78.2011,9.84,37,85,2.24,IN,1734312667
227,mogadishu,2.0371,45.3438,25.31,84,21,8.55,SO,1734312668
228,tionk essil,12.7856,-16.5217,23.34,76,100,2.59,SN,1734312669
229,new norfolk,-42.7826,147.0587,23.84,30,20,3.11,AU,1734312670
230,al kut,32.5147,45.819,6.72,24,3,4.85,IQ,1734312671
231,luderitz,-26.6481,15.1594,15.59,82,0,6.97,NA,1734312673
232,wewak,-3.5534,143.6268,29.0,77,100,2.85,PG,1734312674
233,balkh,36.75,67.0,-2.63,72,77,2.19,AF,1734312675
234,wagar,16.1525,36.2032,20.41,83,1,3.78,SD,1734312676
235,sint michiel liber,12.15,-68.9833,27.9,83,20,5.14,CW,1734312655
236,revda,56.801,59.9303,-10.71,92,100,3.75,RU,1734312678
237,laguna,38.421,-121.4238,8.31,89,20,1.54,US,1734312679
238,sligo,54.2697,-8.4694,10.43,79,100,7.35,IE,1734312680
239,remire-montjoly,4.9167,-52.2667,27.02,83,20,2.06,GF,1734312683
240,kattivakkam,13.2167,80.3167,23.97,89,10,5.6,IN,1734312684
241,ingeniero jacobacci,-41.3427,-69.5448,22.15,36,100,6.09,AR,1734312685
242,akjoujt,19.6969,-14.4164,26.21,9,100,6.4,MR,1734312686
243,kerikeri,-35.2268,173.9474,17.88,96,100,0.52,NZ,1734312687
244,iskateley,67.6803,53.1512,-18.96,92,84,4.4,RU,1734312688
245,cabo san lucas,22.8909,-109.9124,23.17,63,40,2.06,MX,1734312640
246,crane,31.3974,-102.3501,17.79,80,100,6.09,US,1734312691
247,abatskoye,56.2875,70.4555,-15.6,86,11,6.68,RU,1734312692
248,kutum,14.2,24.6667,10.67,33,4,2.2,SD,1734312693
249,carutapera,-1.195,-46.02,26.21,82,27,3.73,BR,1734312694
250,maragogi,-9.0122,-35.2225,25.7,85,100,3.67,BR,1734312525
251,ataq,14.5377,46.8319,12.58,58,5,2.27,YE,1734312696
252,la'ie,21.6477,-157.9253,26.66,81,16,4.02,US,1734312697
253,kayangel,8.0823,134.7173,28.84,76,100,8.63,PW,1734312698
254,klaksvik,62.2266,-6.589,5.59,69,67,14.6,FO,1734312699
255,vegreville,53.5001,-112.0518,-9.97,85,100,6.17,CA,1734312464
256,gewane,10.1664,40.6453,20.45,62,2,2.29,ET,1734312701
257,sitka,57.0531,-135.33,2.94,87,75,0.0,US,1734312702
258,tarawa,1.419,172.984,31.05,70,20,3.6,KI,1734312703
259,bozkurt,41.9577,34.0109,7.23,91,100,7.9,TR,1734312705
260,aykhal,66.0,111.5,-24.45,100,87,2.8,RU,1734312706
261,nuuk,64.1835,-51.7216,-5.66,73,100,2.06,GL,1734312707
262,st. john's,47.5649,-52.7093,-1.58,79,0,6.69,CA,1734312641
263,mount pearl,47.5166,-52.7813,-2.04,81,0,6.69,CA,1734312709
264,kotido,2.9806,34.1331,23.46,46,36,6.64,UG,1734312710
265,aitape,-3.1374,142.3475,29.17,73,100,2.5,PG,1734312711
266,tura,25.5198,90.2201,17.14,60,0,0.82,IN,1734312712
267,darende,38.5458,37.5058,-0.45,60,100,0.79,TR,1734312713
268,maun,-19.9833,23.4167,25.98,50,0,2.57,BW,1734312715
269,prince rupert,54.3161,-130.3201,2.83,75,3,4.63,CA,1734312717
270,qujing,25.4833,103.7833,6.51,85,100,1.94,CN,1734312718
271,bangar,16.8936,120.4243,27.05,70,53,1.91,PH,1734312719
272,oyama,36.3,139.8,8.83,42,5,1.87,JP,1734312720
273,harper,4.375,-7.7169,26.0,86,9,3.19,LR,1734312721
274,panjab,34.388,67.0233,-11.67,97,98,1.15,AF,1734312722
275,kitimat,54.0524,-128.6534,-0.18,99,21,1.28,CA,1734312723
276,lagodekhi,41.8268,46.2767,-0.95,35,74,1.05,GE,1734312724
277,suntar,62.1444,117.6319,-31.54,100,11,1.56,RU,1734312725
278,chonchi,-42.6128,-73.8092,11.68,89,80,1.87,CL,1734312726
279,dunedin,-45.8742,170.5036,11.0,71,100,2.68,NZ,1734312727
280,tremonton,41.7119,-112.1655,1.24,69,6,2.68,US,1734312654
281,ola,59.5833,151.2833,-13.96,80,99,7.09,RU,1734312729
282,paphos,34.7667,32.4167,12.91,76,100,3.6,CY,1734312731
283,raduzhny,62.0961,77.475,-13.31,91,100,6.49,RU,1734312732
284,sydney,-33.8679,151.2073,33.02,63,20,7.2,AU,1734312675
285,nagyatad,46.2296,17.3579,2.58,91,56,3.99,HU,1734312734
286,smithers,54.7804,-127.1743,-4.82,86,100,1.03,CA,1734312533
287,aldinga beach,-35.2793,138.4604,28.29,52,41,3.83,AU,1734312736
288,goure,13.9835,10.2704,15.82,28,100,4.16,NE,1734312737
289,atafu village,-8.5421,-172.5159,27.14,81,100,6.3,TK,1734312738
290,bamboo flat,11.7,92.7167,27.05,83,100,4.12,IN,1734312739
291,natal,-5.795,-35.2094,27.12,83,40,6.17,BR,1734312463
292,volgorechensk,57.4393,41.1555,-6.37,96,97,3.38,RU,1734312741
293,lazaro cardenas,17.9583,-102.2,26.01,77,74,2.6,MX,1734312742
294,zhuanghe,39.7008,122.9911,0.32,35,14,1.92,CN,1734312744
295,key west,24.5557,-81.7826,24.0,79,0,7.2,US,1734312599
296,horta,38.5333,-28.6333,17.23,89,56,4.02,PT,1734312746
297,fale old settlement,-9.3852,-171.2468,27.41,80,56,7.34,TK,1734312747
298,amursk,50.2261,136.8994,-20.22,88,100,0.51,RU,1734312748
299,yung shue wan,22.2333,114.1167,15.93,37,100,0.45,HK,1734312749
300,lata,40.1629,-8.3327,4.19,71,100,2.41,PT,1734312750
301,mar del plata,-38.0023,-57.5575,13.94,86,75,4.63,AR,1734312557
302,sandviken,60.6167,16.7667,1.98,100,67,5.24,SE,1734312752
303,lorengau,-2.0226,147.2712,28.78,78,100,2.84,PG,1734312753
304,wuda,39.4994,106.7117,-5.19,33,100,2.09,CN,1734312754
305,el calafate,-50.3408,-72.2768,12.38,78,100,3.4,AR,1734312755
306,shimoda,34.6667,138.95,11.16,62,5,9.44,JP,1734312756
307,miri,4.4148,114.0089,28.08,83,20,1.54,MY,1734312758
308,estrela,-28.0611,-50.9383,13.62,84,73,4.58,BR,1734312759
309,kidal,18.4411,1.4078,18.79,11,0,4.2,ML,1734312760
310,bemidji,47.4736,-94.8803,0.59,100,100,4.63,US,1734312761
311,galliano,29.4422,-90.2992,20.0,88,0,0.0,US,1734312762
312,oranjemund,-28.55,16.4333,16.48,92,82,5.12,NA,1734312763
313,hammerfest,70.6634,23.6821,-8.75,67,100,8.75,NO,1734312764
314,inhambane,-23.865,35.3833,24.31,89,100,3.06,MZ,1734312765
315,nouadhibou,20.931,-17.0347,23.99,35,100,4.63,MR,1734312766
316,tommot,58.9564,126.2925,-19.77,95,100,4.29,RU,1734312767
317,qoryooley,1.7878,44.53,23.68,88,48,4.8,SO,1734312768
318,liezen,47.5667,14.2333,-0.13,97,99,2.03,AT,1734312769
319,karlskrona,56.1616,15.5866,11.25,79,100,13.87,SE,1734312771
320,pathein,16.7833,94.7333,25.07,64,90,4.75,MM,1734312772
321,praya,14.9215,-23.5087,27.3,34,75,3.6,CV,1734312773
322,albacete,38.8333,-2.0,-2.55,93,0,1.54,ES,1734312774
323,santa terezinha,-29.9002,-50.0904,18.57,91,100,10.36,BR,1734312775
324,berezovyy,51.6667,135.7,-20.29,84,28,0.6,RU,1734312776
325,mbandaka,0.0487,18.2603,23.43,93,100,1.64,CD,1734312777
326,latina,41.45,13.1,9.82,55,0,2.13,IT,1734312778
327,vigan,17.5747,120.3869,28.85,94,100,2.02,PH,1734312780
328,saint-philippe,-21.3585,55.7679,24.27,81,21,4.65,RE,1734312783
329,kawant,22.1,74.05,15.12,31,0,3.29,IN,1734312784
330,misratah,32.3754,15.0925,16.4,70,100,7.29,LY,1734312785
331,conil de la frontera,36.2772,-6.0885,13.95,64,10,12.62,ES,1734312786
332,arkhangel'sk,64.5401,40.5433,-15.94,85,75,2.0,RU,1734312787
333,portland,45.5234,-122.6762,7.96,89,100,3.6,US,1734312780
334,santa cruz,-17.8,-63.1667,24.7,78,20,1.54,BO,1734312790
335,imphal,24.8167,93.95,7.95,93,100,0.51,IN,1734312791
336,sola,-13.8833,167.55,28.15,74,100,5.63,VU,1734312792
337,santiago de cao,-7.9589,-79.2392,18.07,88,26,4.12,PE,1734312794
338,wamba,8.9333,8.6,21.12,24,94,1.89,NG,1734312795
339,igrim,63.1906,64.4162,-20.89,96,49,2.54,RU,1734312796
340,cullinan,-25.6709,28.5236,19.44,78,100,0.77,ZA,1734312797
341,saint-pierre,-21.3393,55.4781,23.82,69,0,5.66,RE,1734312798
342,belmont,37.5202,-122.2758,11.61,87,0,2.57,US,1734312799
343,kourou,5.1552,-52.6478,24.8,90,79,2.6,GF,1734312593
344,bakchar,57.0186,82.0711,-12.51,86,34,5.55,RU,1734312801
345,ulsteinvik,62.3432,5.8487,7.09,73,100,4.92,NO,1734312803
346,north bend,43.4065,-124.2243,7.95,76,100,5.14,US,1734312804
347,westport,41.1415,-73.3579,2.79,72,100,4.02,US,1734312805
348,tucurui,-3.7661,-49.6725,23.65,91,100,1.15,BR,1734312807
349,rurrenabaque,-14.4413,-67.5278,22.77,99,100,0.99,BO,1734312808
350,bodo,67.28,14.405,-4.47,91,75,11.83,NO,1734312809
351,kimbe,-5.5502,150.1429,24.83,97,100,2.2,PG,1734312810
352,saudarkrokur,65.7461,-19.6394,-7.84,90,86,1.65,IS,1734312811
353,shache,38.4167,77.2406,-5.92,71,3,1.38,CN,1734312812
354,neiafu,-18.65,-173.9833,29.38,70,40,4.12,TO,1734312813
355,mount isa,-20.7333,139.5,38.87,27,8,3.09,AU,1734312814
356,lashio,22.9333,97.75,16.65,86,63,0.86,MM,1734312815
357,cidreira,-30.1811,-50.2056,18.9,92,100,6.62,BR,1734312816
358,vernon,50.2581,-119.2691,3.74,74,91,2.57,CA,1734312817
359,salalah,17.0151,54.0924,24.05,35,0,3.6,OM,1734312818
360,susuman,62.7833,148.1667,-25.5,98,100,1.33,RU,1734312820
361,hasaki,35.7333,140.8333,11.43,50,10,3.12,JP,1734312821
362,sabzevar,36.2126,57.6819,-7.68,76,5,3.46,IR,1734312822
363,tejen,37.3834,60.5054,-4.03,79,5,9.68,TM,1734312823
364,kiama,-34.6833,150.8667,28.47,75,2,3.13,AU,1734312824
365,brookings,44.3114,-96.7984,1.21,92,100,7.2,US,1734312825
366,fortuna,40.5982,-124.1573,9.51,76,100,7.2,US,1734312826
367,rabak,13.1809,32.74,22.77,40,71,5.09,SD,1734312827
368,fort mcmurray,56.7268,-111.381,-13.23,85,100,5.14,CA,1734312699
369,reggane,26.7158,0.1714,15.45,29,96,6.23,DZ,1734312829
370,san antonio,29.4241,-98.4936,22.15,90,100,3.6,US,1734312600
371,tabou,4.423,-7.3528,26.15,84,5,2.6,CI,1734312831
372,nadym,65.5333,72.5167,-14.46,94,100,7.9,RU,1734312832
373,aasiaat,68.7098,-52.8699,-13.38,98,95,2.18,GL,1734312834
374,mahajanga,-15.7167,46.3167,25.01,69,20,2.57,MG,1734312835
375,severo-yeniseyskiy,60.3725,93.0408,-5.66,87,100,4.85,RU,1734312836
376,acapulco de juarez,16.8634,-99.8901,28.9,74,75,4.63,MX,1734312543
377,rakops,-21.0167,24.3333,26.7,48,62,2.87,BW,1734312838
378,colonia,50.9333,6.95,10.54,89,100,9.26,DE,1734312596
379,godda,24.8333,87.2167,14.38,47,4,1.23,IN,1734312840
380,quartu sant'elena,39.2419,9.1839,10.02,71,0,2.68,IT,1734312841
381,paoua,7.2427,16.4406,19.81,34,100,2.14,CF,1734312842
382,preobrazheniye,42.9019,133.9064,-6.0,40,1,5.98,RU,1734312843
383,derbent,42.0678,48.2899,3.89,66,99,2.67,RU,1734312844
384,sanford,28.8006,-81.2731,19.63,74,0,3.6,US,1734312845
385,port lincoln,-34.7333,135.8667,24.34,56,2,4.09,AU,1734312847
386,taro,-8.3862,115.28,25.69,81,99,1.03,ID,1734312848
387,la passe,45.5549,-0.8967,7.03,90,0,2.77,FR,1734312849
388,selfoss,63.9331,-20.9971,-0.84,84,100,1.46,IS,1734312850
389,saynshand,44.8824,110.1163,-8.22,58,0,1.51,MN,1734312851
390,juneau,58.3019,-134.4197,0.0,95,100,5.66,US,1734312852
391,karema,-6.8205,30.4389,20.93,86,90,1.57,TZ,1734312853
392,umm kaddadah,13.6017,26.6876,14.39,32,5,6.59,SD,1734312854
393,chimore,-16.9833,-65.1333,24.1,81,99,1.35,BO,1734312855
394,dul'durga,50.6761,113.5931,-16.71,95,37,1.51,RU,1734312856
395,khorixas,-20.3667,14.9667,20.72,32,1,0.65,NA,1734312857
396,qaqortoq,60.7167,-46.0333,-13.45,83,26,3.91,GL,1734312858
397,palmer,42.1584,-72.3287,-1.38,67,100,0.0,US,1734312667
398,kara,9.5511,1.1861,21.17,19,0,1.68,TG,1734312861
399,dwarka,22.2394,68.9678,20.47,44,0,5.3,IN,1734312862
400,maintirano,-18.0667,44.0167,27.21,80,88,1.67,MG,1734312863
401,touros,-5.1989,-35.4608,26.13,82,32,5.68,BR,1734312864
402,akureyri,65.6835,-18.0878,-4.04,93,100,1.03,IS,1734312865
403,mana,5.6592,-53.7767,25.38,88,17,3.96,GF,1734312866
404,port hedland,-20.3167,118.5667,32.03,70,40,3.6,AU,1734312867
405,san salvador,13.6894,-89.1872,18.51,87,60,1.7,SV,1734312868
406,sittwe,20.15,92.9,23.08,67,48,3.4,MM,1734312869
407,ahvaz,31.3203,48.6693,6.97,61,0,2.06,IR,1734312855
408,hobyo,5.3505,48.5268,25.12,79,70,9.75,SO,1734312871
409,la paz,-16.5,-68.15,11.99,73,75,2.57,BO,1734312838
410,dzhambeyty,50.2536,52.595,-2.2,77,100,9.21,KZ,1734312874
411,bikenibeu village,1.3673,173.1241,30.98,70,20,3.6,KI,1734312875
412,sathankulam,8.4416,77.9135,23.05,74,99,5.86,IN,1734312876
413,kavieng,-2.5744,150.7967,29.79,69,100,4.23,PG,1734312877
414,gizo,-8.103,156.8419,29.2,73,84,1.55,SB,1734312878
415,aden,12.7794,45.0367,25.3,71,38,7.39,YE,1734312879
416,rozdilna,46.8433,30.0792,-0.27,82,14,5.79,UA,1734312880
417,siwa oasis,29.2041,25.5195,12.34,64,99,0.7,EG,1734312881
418,tucupita,9.0622,-62.051,24.14,89,57,1.89,VE,1734312882
419,pangody,65.85,74.4859,-13.63,94,100,7.42,RU,1734312883
420,yamethin,20.4333,96.15,21.42,72,13,3.42,MM,1734312884
421,bandon,51.7469,-8.7425,9.77,83,100,5.31,IE,1734312886
422,hashtrud,37.4779,47.0508,-9.09,79,73,1.23,IR,1734312887
423,vanimo,-2.6741,141.3028,28.39,79,100,2.63,PG,1734312888
424,leesville,31.1435,-93.261,21.13,83,0,3.6,US,1734312889
425,san fernando de apure,7.8878,-67.4724,27.59,58,48,1.94,VE,1734312890
426,borodulikha,50.7184,80.9295,-9.36,91,100,4.32,KZ,1734312892
427,khandyga,62.6667,135.6,-36.83,97,39,1.09,RU,1734312893
428,hiratacho,35.4333,132.8167,7.98,61,75,6.69,JP,1734312894
429,jinchang,38.4953,102.1739,-4.49,42,100,1.75,CN,1734312896
430,capinota,-17.7167,-66.2333,16.17,66,100,3.32,BO,1734312897
431,alva,56.1528,-3.8051,8.16,86,100,9.15,GB,1734312898
432,tamandare,-8.7597,-35.1047,25.62,85,92,3.55,BR,1734312899
433,caleta de carquin,-11.0925,-77.6267,20.03,87,100,3.73,PE,1734312900
434,barcelos,41.5388,-8.6151,6.08,70,49,2.69,PT,1734312901
435,pobiedziska,52.4775,17.2877,7.55,99,100,5.81,PL,1734312902
436,dapa,9.7594,126.0531,26.11,81,100,3.5,PH,1734312904
437,ponta delgada,37.7333,-25.6667,18.44,88,40,8.75,PT,1734312907
438,ji'an,27.1172,114.9793,8.31,31,0,1.15,CN,1734312908
439,palikir - national government center,6.9248,158.1611,31.41,70,75,6.69,FM,1734312909
440,mainleus,50.1,11.3833,5.39,95,100,5.9,DE,1734312853
441,coquimbo,-29.9533,-71.3436,14.85,88,0,1.54,CL,1734312741
442,bouarfa,32.53,-1.95,5.34,64,4,2.34,MA,1734312912
443,hajin,34.6927,40.827,6.24,23,45,2.64,SY,1734312914
444,ternate,0.8,127.4,26.81,82,100,2.84,ID,1734312915
445,santa maria,-29.6842,-53.8069,19.61,73,75,2.06,BR,1734312672
446,vodnyy,63.5046,53.4095,-27.54,100,63,1.2,RU,1734312918
447,porto franco,-6.3383,-47.3992,24.89,80,100,1.23,BR,1734312919
448,okha,53.5739,142.9478,-9.01,84,100,8.55,RU,1734312920
449,west bay,19.3667,-81.4167,27.04,78,40,5.66,KY,1734312921
450,n'zeto,-7.2312,12.8666,25.97,91,100,1.99,AO,1734312922
451,tame,6.461,-71.73,27.05,52,98,1.79,CO,1734312923
452,greymouth,-42.4667,171.2,18.25,77,34,2.77,NZ,1734312925
453,ashland,40.8167,-82.2665,6.3,99,100,2.85,US,1734312926
454,plesetsk,62.708,40.2916,-22.22,100,64,1.8,RU,1734312927
455,petropavlovsk-kamchatsky,53.0452,158.6483,-6.67,49,0,2.0,RU,1734312928
456,manakara,-22.1333,48.0167,21.66,85,8,2.47,MG,1734312929
457,juli,-16.2167,-69.45,10.18,73,100,2.69,PE,1734312931
458,cabedelo,-6.9811,-34.8339,27.37,83,37,4.25,BR,1734312932
459,antsohihy,-14.8796,47.9875,23.99,71,99,2.66,MG,1734312933
460,sao paulo de olivenca,-3.3783,-68.8725,22.89,99,56,1.32,BR,1734312934
461,portishead,51.482,-2.7697,10.4,96,100,8.23,GB,1734312935
462,sechura,-5.5569,-80.8222,20.12,78,1,5.09,PE,1734312936
463,hunchun,42.8675,130.3581,-4.46,43,66,6.64,CN,1734312938
464,verkhnyaya pyshma,56.9667,60.5808,-12.31,93,100,3.59,RU,1734312939
465,xiazhuang,34.9161,118.6389,4.54,33,0,2.41,CN,1734312940
466,itoman,26.1247,127.6694,17.01,60,75,7.2,JP,1734312941
467,camana,-16.6228,-72.7111,19.79,88,76,2.43,PE,1734312943
468,mazagao,-0.115,-51.2894,25.07,87,100,2.13,BR,1734312944
469,kolonia,50.9333,6.95,10.54,89,100,7.72,DE,1734312945
470,ambodifotatra,-16.9833,49.85,26.17,77,65,6.18,MG,1734312946
471,nguigmi,14.2495,13.1092,17.1,30,84,5.68,NE,1734312948
472,zhangjiakou,40.81,114.8794,-5.16,41,3,1.77,CN,1734312949
473,east ballina,-28.8667,153.5833,25.19,85,6,7.28,AU,1734312950
474,conception bay south,47.4999,-52.9981,-1.71,81,8,5.16,CA,1734312951
475,leninskoye,41.7589,69.3864,-14.37,89,8,2.84,KZ,1734312952
476,goundam,16.4145,-3.6708,20.62,9,0,3.97,ML,1734312953
477,karamay,45.6004,84.8661,-1.81,46,100,17.7,CN,1734312955
478,novo oriente,-5.5344,-40.7742,25.8,59,76,1.1,BR,1734312956
479,pucallpa,-8.3791,-74.5539,25.02,94,75,1.03,PE,1734312768
480,baise city,23.8997,106.6133,14.43,49,0,0.68,CN,1734312958
481,kediri,-7.8167,112.0167,24.63,93,100,0.64,ID,1734312959
482,daru,-9.0763,143.2092,30.04,73,96,2.57,PG,1734312960
483,tyukhtet,56.5389,89.3011,-3.0,93,100,5.36,RU,1734312961
484,entebbe,0.0644,32.4469,21.65,77,71,0.63,UG,1734312962
485,lodja,-3.4833,23.4333,20.6,99,77,0.03,CD,1734312964
486,butterworth,5.3991,100.3638,28.02,78,20,3.09,MY,1734312965
487,derzhavinsk,51.1,66.3167,-13.2,87,90,7.91,KZ,1734312966
488,wenling,28.3669,121.36,7.69,50,0,1.44,CN,1734312968
489,cadale,2.7603,46.3222,25.2,84,18,7.96,SO,1734312969
490,pigeon forge,35.7884,-83.5543,10.17,100,100,0.0,US,1734312970
491,ljusdal,61.8288,16.0913,1.44,73,80,4.76,SE,1734312971
492,bonthe,7.5264,-12.505,26.53,79,20,2.09,SL,1734312972
493,armacao de buzios,-22.7469,-41.8817,24.45,83,92,7.4,BR,1734312751
494,qa'en,33.7265,59.1844,-9.56,88,9,1.09,IR,1734312974
495,al jawf,29.5,38.75,6.03,22,86,3.08,SA,1734312975
496,puerto armuelles,8.2833,-82.8667,27.27,72,33,3.58,PA,1734312976
497,gazojak,41.1875,61.4036,-2.87,68,0,6.1,TM,1734312977
498,lobujya,27.95,86.8167,-7.21,16,0,1.88,NP,1734312979
499,rudsar,37.1376,50.288,5.78,61,0,3.28,IR,1734312980
500,ozurgeti,41.9231,42.0059,4.64,73,100,1.21,GE,1734312981
501,guarapari,-20.6667,-40.4975,25.1,79,100,3.83,BR,1734312982
502,margate,51.3813,1.3862,11.04,86,100,1.34,GB,1734312824
503,fredericksburg,38.3032,-77.4605,3.97,92,100,1.54,US,1734312984
504,topki,55.2769,85.6163,-7.24,88,100,6.64,RU,1734312985
505,lijiang,26.8688,100.2207,6.29,31,0,1.53,CN,1734312986
506,cabinda,-5.55,12.2,25.87,93,99,2.01,AO,1734312987
507,jianshui,23.6363,102.8264,11.53,88,88,1.15,CN,1734312988
508,makokou,0.5738,12.8642,22.62,95,100,1.41,GA,1734312989
509,dhromolaxia,34.8755,33.5868,10.96,93,20,3.09,CY,1734312990
510,san kamphaeng,18.7449,99.1195,23.89,89,75,3.09,TH,1734312992
511,port macquarie,-31.4333,152.9167,27.82,75,7,3.13,AU,1734312993
512,san patricio,28.017,-97.5169,22.97,82,0,5.56,US,1734312994
513,jacmel,18.2342,-72.5347,24.19,84,0,2.46,HT,1734312995
514,san luis de la loma,17.2706,-100.8939,25.49,82,1,3.01,MX,1734312996
515,bugiri,0.5714,33.7417,20.6,79,91,1.27,UG,1734312998
516,flin flon,54.7682,-101.865,-7.2,93,100,3.59,CA,1734312999
517,acajutla,13.5928,-89.8275,25.52,73,13,2.88,SV,1734313000
518,tshikapa,-6.4167,20.8,21.97,94,100,0.48,CD,1734313001
519,mont-laurier,46.5501,-75.4993,-6.95,89,100,1.42,CA,1734312857
520,chapada dos guimaraes,-15.4606,-55.7497,21.3,89,100,1.42,BR,1734313004
521,trinec,49.6776,18.6708,5.48,95,100,4.33,CZ,1734313005
522,myitkyina,25.3833,97.4,15.03,51,0,1.12,MM,1734312904
523,ash shafa,21.0694,40.3119,9.75,53,0,1.12,SA,1734313007
524,fiche,9.8,38.7333,6.92,54,28,1.09,ET,1734313008
525,dongola,19.1667,30.4833,16.36,41,0,4.57,SD,1734313009
526,ceerigaabo,10.6162,47.368,11.02,56,0,2.9,SO,1734313010
527,pitimbu,-7.4706,-34.8086,26.25,82,40,4.45,BR,1734313012
528,ghanzi,-21.5667,21.7833,22.46,58,100,2.5,BW,1734313013
529,menongue,-14.6585,17.691,18.72,82,100,1.35,AO,1734313015
530,holualoa,19.6228,-155.9522,24.91,81,75,6.17,US,1734313016
531,midvagur,62.0511,-7.1939,5.46,75,75,12.86,FO,1734313017
532,fada,7.25,4.0667,20.37,43,33,1.07,NG,1734313018
533,tindouf,27.6711,-8.1474,14.25,26,0,2.57,DZ,1734313019
534,toliara,-23.35,43.6667,26.58,72,77,3.87,MG,1734313021
535,flying fish cove,-10.4217,105.6791,26.82,89,20,3.09,CX,1734313022
536,shijiazhuang,38.0414,114.4786,3.41,19,0,1.69,CN,1734313025
537,benton,36.3334,-94.3335,15.95,91,100,6.17,US,1734313026
538,bhimunipatnam,17.8833,83.4333,18.68,63,99,3.48,IN,1734313027
539,villa gesell,-37.2639,-56.973,14.3,86,0,5.46,AR,1734313028
540,higuera de zaragoza,25.95,-109.2833,17.34,82,3,4.0,MX,1734313029
541,sao gabriel da cachoeira,-0.1303,-67.0892,23.53,95,66,1.18,BR,1734313030
542,canutama,-6.5339,-64.3831,23.52,98,100,1.24,BR,1734313031
543,yeraliyev,43.2,51.65,4.92,66,100,15.51,KZ,1734313032
544,xihe,31.6864,113.4659,6.92,44,0,1.79,CN,1734313033
545,zhosaly,45.4878,64.0781,-5.35,68,9,5.15,KZ,1734313034
546,wynyard,-41.0,145.7167,19.55,87,92,12.96,AU,1734313035
547,mil'kovo,55.6078,37.7956,-0.37,66,98,4.43,RU,1734313037
548,tres arroyos,-38.3739,-60.2798,12.38,71,0,3.38,AR,1734312951
549,saint-georges,12.0564,-61.7485,26.82,83,20,4.63,GD,1734313039
550,labuan,5.2767,115.2417,28.2,88,40,0.0,MY,1734313040
551,keelung,25.1283,121.7419,15.61,59,100,4.85,TW,1734313041
552,east london,-33.0153,27.9116,18.88,85,100,4.63,ZA,1734313042
553,harstad,68.799,16.5293,-3.25,92,100,11.18,NO,1734313043
554,al bayda,32.7627,21.7551,11.6,87,100,2.63,LY,1734313044
555,alotau,-10.3069,150.4462,30.98,67,100,1.5,PG,1734313045
556,berehomet,48.1788,25.3486,-2.92,82,75,3.53,UA,1734313046
