City_ID,City,Lat,Lng,Max Temp,Humidity,Cloudiness,Wind Speed,Country,Date
0,bredasdorp,-34.5322,20.0403,24.07,58,90,9.48,ZA,1733484711
1,port lincoln,-34.7333,135.8667,21.07,82,57,1.69,AU,1733484712
2,port-aux-francais,-49.35,70.2167,4.6,76,51,15.01,TF,1733484713
3,ta`u,-14.2336,-169.5144,27.69,81,100,6.77,AS,1733484714
4,blackmans bay,-43.0167,147.3167,15.07,86,85,2.2,AU,1733484715
5,sligo,54.2697,-8.4694,4.96,87,100,5.14,IE,1733484716
6,san-pedro,4.7485,-6.6363,30.74,56,25,2.59,CI,1733484717
7,sosnytsya,51.5239,32.4999,-0.27,94,100,4.7,UA,1733484718
8,sinop,41.7711,34.8709,7.29,72,27,4.26,TR,1733484617
9,ushuaia,-54.8,-68.3,4.81,87,75,9.26,AR,1733484707
10,turpan,42.9333,89.1667,1.25,66,0,0.56,CN,1733484722
11,chonchi,-42.6128,-73.8092,10.62,76,99,1.38,CL,1733484723
12,khovd,48.0056,91.6419,-11.86,79,8,0.75,MN,1733484724
13,malanje,-9.5402,16.341,27.94,56,54,0.98,AO,1733484725
14,ilulissat,69.2167,-51.1,-12.99,52,40,4.12,GL,1733484726
15,iqaluit,63.7506,-68.5145,-12.15,60,0,5.66,CA,1733484612
16,sao lourenco do sul,-31.3653,-51.9783,23.62,80,92,4.1,BR,1733484728
17,albany,42.6001,-73.9662,-4.77,67,39,1.79,US,1733484729
18,waitangi,-43.9535,-176.5597,11.01,94,66,1.34,NZ,1733484730
19,balabac,7.9868,117.0645,27.14,78,97,1.58,PH,1733484731
20,codrington,-38.2667,141.9667,18.32,86,83,4.99,AU,1733484733
21,west island,-12.1568,96.8225,27.24,74,100,10.33,CC,1733484734
22,east london,-33.0153,27.9116,24.52,57,0,4.12,ZA,1733484735
23,bethel,41.3712,-73.414,-1.36,63,16,1.79,US,1733484592
24,adamstown,-25.066,-130.1015,22.73,81,93,8.45,PN,1733484737
25,gunjur,13.2019,-16.7339,26.04,25,0,6.69,GM,1733484739
26,ust-nera,64.5667,143.2,-28.16,99,81,1.03,RU,1733484740
27,edinburgh of the seven seas,-37.0676,-12.3116,15.63,83,13,13.51,SH,1733484743
28,vikhorevka,56.1201,101.1636,-7.11,94,97,2.52,RU,1733484744
29,anadyr,64.75,177.4833,-25.56,83,0,5.0,RU,1733484745
30,taro,-8.3862,115.28,20.65,100,100,0.55,ID,1733484746
31,hawaiian paradise park,19.5933,-154.9731,19.73,77,0,2.57,US,1733484747
32,kayangel,8.0823,134.7173,29.06,77,100,7.25,PW,1733484748
33,horta,38.5333,-28.6333,18.9,94,75,3.09,PT,1733484749
34,fuyang,32.9,115.8167,9.57,39,100,2.48,CN,1733484750
35,carnarvon,-24.8667,113.6333,22.74,73,0,11.18,AU,1733484752
36,usogorsk,63.4106,48.6872,-9.72,94,100,3.21,RU,1733484753
37,thohoyandou,-22.9456,30.485,39.87,16,11,2.75,ZA,1733484619
38,huarmey,-10.0681,-78.1522,19.08,90,90,1.93,PE,1733484755
39,porbandar,21.6422,69.6093,28.65,35,88,4.81,IN,1733484756
40,avarua,-21.2078,-159.775,22.03,94,84,1.03,CK,1733484757
41,potam,27.6,-110.3833,16.08,29,0,2.05,MX,1733484759
42,yellowknife,62.456,-114.3525,-10.88,99,100,5.14,CA,1733484760
43,nuku'alofa,-21.1333,-175.2,25.19,94,75,3.09,TO,1733484761
44,argungu,12.7433,4.5269,30.79,10,89,6.11,NG,1733484762
45,qaqortoq,60.7167,-46.0333,-17.41,78,1,3.73,GL,1733484763
46,praia da vitoria,38.7333,-27.0667,19.14,82,40,3.28,PT,1733484764
47,kralendijk,12.15,-68.2667,25.99,83,40,4.12,BQ,1733484766
48,namibe,-15.1961,12.1522,26.86,67,45,5.44,AO,1733484767
49,nova sintra,14.8667,-24.7167,26.78,66,18,3.41,CV,1733484768
50,invercargill,-46.4,168.35,13.34,96,100,2.68,NZ,1733484769
51,port mathurin,-19.6833,63.4167,25.01,77,86,7.98,MU,1733484770
52,tromso,69.6496,18.957,0.01,64,0,4.63,NO,1733484771
53,guerrero negro,27.9769,-114.0611,14.26,89,0,3.67,MX,1733484772
54,weyburn,49.6668,-103.8511,-6.88,100,46,2.06,CA,1733484595
55,staryye ozinki,51.1786,49.6769,-4.53,61,9,3.93,RU,1733484774
56,tura,25.5198,90.2201,16.02,74,6,1.02,IN,1733484775
57,necochea,-38.5473,-58.7368,14.79,91,98,4.48,AR,1733484776
58,beyneu,45.3167,55.2,1.18,66,5,2.84,KZ,1733484777
59,dwarka,22.2394,68.9678,26.47,44,70,4.47,IN,1733484778
60,puerto ayora,-0.7393,-90.3518,21.42,95,70,2.86,EC,1733484780
61,kodiak,57.79,-152.4072,5.73,87,100,8.75,US,1733484781
62,grytviken,-54.2811,-36.5092,0.4,66,96,2.91,GS,1733484782
63,bomdila,27.25,92.4,0.69,94,99,0.7,IN,1733484783
64,ambon,-3.6954,128.1814,27.71,100,98,1.5,ID,1733484784
65,port saint john's,-31.6229,29.5448,25.01,69,87,4.14,ZA,1733484786
66,whitehorse,60.7161,-135.0538,2.79,87,100,6.71,CA,1733484787
67,wailua homesteads,22.0669,-159.378,20.44,95,40,5.66,US,1733484788
68,olonkinbyen,70.9221,-8.7187,-1.92,98,100,12.66,SJ,1733484790
69,acapulco de juarez,16.8634,-99.8901,23.9,88,0,2.06,MX,1733484791
70,puerto natales,-51.7236,-72.4875,7.25,65,0,2.06,CL,1733484792
71,sitka,57.0531,-135.33,7.94,87,100,3.09,US,1733484793
72,amga,60.8953,131.9608,-28.08,100,100,1.25,RU,1733484794
73,alofi,-19.0595,-169.9187,22.94,88,100,1.54,NU,1733484795
74,kununurra,-15.7667,128.7333,26.99,94,20,1.54,AU,1733484598
75,kasese,0.1833,30.0833,26.4,60,79,1.1,UG,1733484797
76,saipan,15.1355,145.701,29.39,86,40,5.14,MP,1733484511
77,talnakh,69.4865,88.3972,-18.09,99,99,1.86,RU,1733484801
78,constantia,44.1833,28.65,9.38,76,99,7.98,RO,1733484802
79,gagarin,55.5529,34.9954,-5.19,90,100,4.96,RU,1733484803
80,susuman,62.7833,148.1667,-23.22,100,100,0.68,RU,1733484804
81,vorgashor,67.5833,63.95,-9.56,94,99,3.6,RU,1733484805
82,ternate,0.8,127.4,26.86,86,92,5.0,ID,1733484806
83,saint-philippe,-21.3585,55.7679,24.73,79,37,4.78,RE,1733484807
84,ribeira grande,38.5167,-28.7,19.32,88,75,3.09,PT,1733484808
85,alta,69.9689,23.2717,0.59,76,0,5.66,NO,1733484809
86,erzincan,39.75,39.5,-1.39,74,20,0.51,TR,1733484626
87,punta arenas,-53.15,-70.9167,7.06,61,40,8.75,CL,1733484576
88,glace bay,46.1969,-59.957,1.76,84,40,5.36,CA,1733484814
89,tiksi,71.6872,128.8694,-26.26,98,76,3.03,RU,1733484815
90,bilibino,68.0546,166.4372,-24.36,94,5,1.62,RU,1733484816
91,tazovsky,67.4667,78.7,-18.5,100,95,3.6,RU,1733484817
92,udachny,66.4167,112.4,-9.53,93,100,7.4,RU,1733484818
93,hashtrud,37.4779,47.0508,6.66,28,1,0.71,IR,1733484819
94,klyuchi,52.2667,79.1667,-7.81,92,100,2.91,RU,1733484820
95,monte real,39.8521,-8.8635,17.29,77,75,3.6,PT,1733484822
96,shadrinsk,56.0852,63.6335,-8.85,91,7,3.51,RU,1733484823
97,buala,-8.145,159.5921,27.31,78,100,2.19,SB,1733484824
98,nuuk,64.1835,-51.7216,-6.66,79,75,4.63,GL,1733484825
99,papatowai,-46.5619,169.4708,12.92,94,100,2.94,NZ,1733484826
100,newman,37.3138,-121.0208,9.98,66,0,0.77,US,1733484827
101,pont rouge,48.8833,-72.0825,-11.29,72,89,9.2,CA,1733484828
102,murghob,38.1702,73.9667,-16.19,52,0,2.14,TJ,1733484829
103,lompoc,34.6391,-120.4579,9.4,92,0,3.09,US,1733484830
104,weno,7.4515,151.8468,28.97,79,75,3.09,FM,1733484831
105,rongelap,11.1635,166.8941,28.1,83,8,11.32,MH,1733484833
106,cooma,-36.2333,149.1333,17.84,97,86,0.87,AU,1733484834
107,berbera,10.4396,45.0143,28.04,56,7,6.48,SO,1733484836
108,san patricio,28.017,-97.5169,13.97,60,100,6.24,US,1733484838
109,margaret river,-33.95,115.0667,14.73,64,0,7.87,AU,1733484839
110,college,64.8569,-147.8028,-7.01,86,100,0.0,US,1733484840
111,st. john's,47.5649,-52.7093,8.64,96,100,19.03,CA,1733484841
112,baracoa,20.3467,-74.4958,24.45,92,100,3.0,CU,1733484844
113,sinabang,2.4803,96.3801,26.28,83,90,1.62,ID,1733484845
114,karatas,36.582,35.3701,18.22,51,56,8.43,TR,1733484846
115,taltal,-25.4,-70.4833,18.07,72,24,1.5,CL,1733484847
116,mukalla,14.5425,49.1242,26.6,45,0,2.45,YE,1733484832
117,colonia,50.9333,6.95,8.36,84,100,10.8,DE,1733484794
118,isafjordur,66.0755,-23.124,-6.21,90,100,7.28,IS,1733484804
119,igarka,67.4667,86.5833,-18.88,98,86,2.68,RU,1733484851
120,berdigestyakh,62.0989,126.6992,-25.5,100,89,1.38,RU,1733484852
121,northam,51.0333,-4.2167,9.51,77,82,5.92,GB,1733484853
122,happy valley-goose bay,53.3168,-60.3315,-2.83,93,100,12.86,CA,1733484854
123,georgetown,5.4112,100.3354,30.96,68,20,2.06,MY,1733484855
124,jaicos,-7.3592,-41.1378,29.29,46,39,2.41,BR,1733484856
125,novodvinsk,64.4165,40.8122,-7.14,87,21,3.49,RU,1733484858
126,utrik,11.2278,169.8474,27.51,82,12,11.5,MH,1733484859
127,kidal,18.4411,1.4078,25.94,11,90,8.97,ML,1733484860
128,saurimo,-9.6608,20.3916,28.9,49,17,1.98,AO,1733484861
129,remire-montjoly,4.9167,-52.2667,28.02,78,20,3.6,GF,1733484862
130,stanley,54.868,-1.6985,6.4,79,20,5.66,GB,1733484863
131,tibati,6.4667,12.6333,32.75,18,20,2.86,CM,1733484864
132,saint-joseph,-21.3667,55.6167,28.21,79,39,3.88,RE,1733484865
133,zaragoza,41.6561,-0.8773,19.25,57,40,8.23,ES,1733484868
134,orizona,-17.0314,-48.2958,24.11,66,82,3.66,BR,1733484869
135,san antonio de pale,-1.4014,5.6325,26.56,82,61,5.15,GQ,1733484870
136,lihue,21.9789,-159.3672,20.77,88,40,5.66,US,1733484871
137,colac,-38.3333,143.5833,16.89,97,100,5.28,AU,1733484872
138,hermanus,-34.4187,19.2345,21.56,73,83,7.06,ZA,1733484874
139,agat village,13.3886,144.6585,28.53,88,20,4.63,GU,1733484875
140,nouadhibou,20.931,-17.0347,23.99,38,100,5.14,MR,1733484876
141,pangai,-19.8,-174.35,25.96,85,100,6.11,TO,1733484877
142,opuwo,-18.0607,13.84,35.19,9,36,0.93,NA,1733484878
143,port alfred,-33.5906,26.891,26.77,54,44,4.92,ZA,1733484880
144,al bayda',32.7627,21.7551,15.65,39,6,6.56,LY,1733484881
145,dhidhdhoo,6.8833,73.1,27.05,66,30,0.89,MV,1733484882
146,barra de santo antonio,-9.4047,-35.5072,27.13,67,87,4.18,BR,1733484883
147,keflavik,64.0049,-22.5624,-2.76,86,20,3.09,IS,1733484884
148,sabang,5.8933,95.3214,26.1,85,81,4.68,ID,1733484885
149,singaraja,-8.112,115.0882,25.92,95,100,3.95,ID,1733484886
150,crane,31.3974,-102.3501,7.69,53,100,5.69,US,1733484887
151,goundam,16.4145,-3.6708,27.76,12,69,8.29,ML,1733484888
152,pushkinskiye gory,57.0209,28.9103,-1.05,72,100,3.99,RU,1733484889
153,steszew,52.2837,16.7009,2.37,95,75,5.14,PL,1733484891
154,sosnovo-ozerskoye,52.5249,111.5418,-21.16,99,52,3.67,RU,1733484892
155,huayin,34.5675,110.0921,6.3,39,17,2.5,CN,1733484893
156,rocky mountain house,52.3668,-114.9188,-7.94,100,65,1.03,CA,1733484605
157,kailua-kona,19.6406,-155.9956,22.98,68,0,1.54,US,1733484895
158,carnaiba,-8.7,-37.6667,28.87,42,86,5.65,BR,1733484829
159,marsabit,2.3284,37.9899,25.76,35,96,5.16,KE,1733484897
160,isangel,-19.55,169.2667,25.14,87,99,4.57,VU,1733484898
161,cabo san lucas,22.8909,-109.9124,19.31,68,58,3.36,MX,1733484605
162,borovskoy,53.8,64.15,-9.23,94,98,4.87,KZ,1733484900
163,uturoa,-16.7333,-151.4333,27.41,75,96,6.76,PF,1733484901
164,vernon,50.2581,-119.2691,1.36,77,79,2.57,CA,1733484902
165,nitro,38.4148,-81.844,-4.98,71,4,2.17,US,1733484904
166,puntarenas,9.9763,-84.8384,23.8,84,34,1.25,CR,1733484905
167,enewetak,11.3474,162.3373,28.38,80,84,10.4,MH,1733484906
168,grivenskaya,45.6473,38.176,8.14,74,98,1.85,RU,1733484907
169,harstad,68.799,16.5293,0.64,75,100,3.41,NO,1733484908
170,san pedro pochutla,15.7333,-96.4667,22.62,70,16,1.35,MX,1733484909
171,ulsteinvik,62.3432,5.8487,8.07,92,100,6.11,NO,1733484910
172,mabaruma,8.2,-59.7833,25.1,79,53,0.97,GY,1733484911
173,tunceli,39.1083,39.5471,7.3,72,17,0.18,TR,1733484912
174,mugumu,-1.85,34.7,24.41,54,45,2.18,TZ,1733484913
175,kapuskasing,49.4169,-82.4331,-10.95,85,100,2.57,CA,1733484662
176,alexandria,31.2156,29.9553,20.53,57,2,3.23,EG,1733484915
177,tocopilla,-22.092,-70.1979,20.34,71,78,4.8,CL,1733484666
178,xinyuan,37.3,99.0,-11.58,60,45,2.73,CN,1733484918
179,oranjemund,-28.55,16.4333,20.63,62,97,7.11,NA,1733484919
180,iola,37.9245,-95.4,-6.97,76,20,0.89,US,1733484643
181,magadan,59.5667,150.8,-8.67,79,68,6.17,RU,1733484654
182,mandal,25.45,74.5667,21.75,22,64,0.67,IN,1733484922
183,thompson,55.7435,-97.8558,-27.91,76,20,1.54,CA,1733484923
184,karratha,-20.7377,116.8463,28.39,58,91,5.04,AU,1733484924
185,siocon,7.7061,122.1353,26.91,87,100,2.98,PH,1733484925
186,broken hill,-31.95,141.4333,26.31,65,85,5.34,AU,1733484926
187,marsassoum,12.8275,-15.9806,31.19,13,100,5.72,SN,1733484927
188,la ronge,55.1001,-105.2842,-8.86,92,100,5.14,CA,1733484929
189,saint-pierre,-21.3393,55.4781,28.82,54,75,3.6,RE,1733484930
190,kayes,14.0,-11.0,30.26,10,95,4.86,ML,1733484931
191,bodo,67.28,14.405,3.02,65,75,9.77,NO,1733484932
192,kerikeri,-35.2268,173.9474,15.51,82,6,1.75,NZ,1733484934
193,port shepstone,-30.7414,30.455,23.68,75,100,3.57,ZA,1733484935
194,ise,34.4833,136.7,9.68,56,81,5.71,JP,1733484936
195,praya,14.9215,-23.5087,29.3,51,20,5.14,CV,1733484727
196,richmond,37.5538,-77.4603,-3.76,65,0,3.09,US,1733484794
197,hami,42.8,93.45,-2.78,72,4,2.04,CN,1733484941
198,fereydunshahr,32.941,50.121,5.28,37,0,1.83,IR,1733484942
199,island harbour,50.724,-1.2758,9.04,67,56,1.79,GB,1733484943
200,beira,-19.8436,34.8389,32.05,79,20,6.69,MZ,1733484944
201,yarmouth,41.7057,-70.2286,1.09,69,0,12.52,US,1733484946
202,palmer,42.1584,-72.3287,-3.25,52,100,7.2,US,1733484947
203,longyearbyen,78.2186,15.6401,-4.09,74,20,9.77,SJ,1733484948
204,katsuura,35.1333,140.3,12.09,68,36,7.29,JP,1733484950
205,fort bragg,35.139,-79.006,-3.09,52,0,2.06,US,1733484951
206,papao,-17.75,-149.55,26.82,76,100,8.09,PF,1733484952
207,olinda,-8.0089,-34.8553,28.85,65,75,7.72,BR,1733484713
208,tangalle,6.024,80.7911,26.47,84,98,1.68,LK,1733484954
209,ormara,25.2088,64.6357,25.84,39,19,7.42,PK,1733484955
210,pointe aux piments,-20.0628,57.5131,30.28,68,14,7.85,MU,1733484956
211,ayr,55.4627,-4.6339,6.99,90,75,4.63,GB,1733484957
212,sitges,41.2351,1.8119,17.4,60,100,2.94,ES,1733484716
213,holualoa,19.6228,-155.9522,20.91,70,0,1.54,US,1733484883
214,westerland,54.9079,8.3033,6.07,93,75,4.63,DE,1733484960
215,quellon,-43.1167,-73.6167,9.17,78,100,3.38,CL,1733484961
216,dunedin,-45.8742,170.5036,13.78,96,84,0.45,NZ,1733484963
217,ola,59.5833,151.2833,-9.99,80,92,6.23,RU,1733484964
218,hafar al-batin,28.4328,45.9708,22.32,30,0,3.09,SA,1733484965
219,zaozersk,69.4005,32.4476,-6.37,86,98,6.3,RU,1733484966
220,iskateley,67.6803,53.1512,-2.79,90,89,7.57,RU,1733484967
221,talitsa,56.8804,60.0213,-9.35,93,11,3.72,RU,1733484968
222,chifeng,42.2683,118.9636,-8.33,46,54,1.86,CN,1733484969
223,achinsk,56.2694,90.4993,-12.12,97,100,2.47,RU,1733484970
224,progreso,21.2833,-89.6667,19.74,84,2,2.14,MX,1733484971
225,port-vila,-17.7338,168.3219,25.4,86,100,3.49,VU,1733484802
226,petropavlovsk-kamchatsky,53.0452,158.6483,-8.67,73,75,4.0,RU,1733484974
227,arraial do cabo,-22.9661,-42.0278,26.98,78,20,2.57,BR,1733484975
228,ouadda,8.0777,22.4007,35.27,14,12,2.23,CF,1733484976
229,kirakira,-10.4544,161.9205,26.7,77,100,3.34,SB,1733484977
230,mata-utu,-13.2816,-176.1745,28.05,81,100,5.86,WF,1733484978
231,prabumulih,-3.45,104.25,25.5,84,100,0.35,ID,1733484979
232,tindouf,27.6711,-8.1474,19.25,30,0,5.14,DZ,1733484980
233,yelizovo,53.1873,158.3805,-7.92,73,75,4.0,RU,1733484981
234,guozhen,34.3659,107.359,5.35,42,23,1.42,CN,1733484983
235,sur,22.5667,59.5289,25.68,53,68,7.27,OM,1733484984
236,borgarnes,64.5383,-21.9206,-8.68,97,66,3.36,IS,1733484985
237,yarkovo,57.4028,67.0786,-9.47,93,12,2.07,RU,1733484986
238,dudinka,69.4058,86.1778,-16.72,97,100,3.65,RU,1733484987
239,hebron,31.5333,35.1,17.19,26,31,3.42,PS,1733484988
240,lubliniec,50.669,18.6844,0.5,87,100,6.06,PL,1733484989
241,miyaly,48.8844,53.7836,-2.46,55,0,4.46,KZ,1733484990
242,manadhoo,5.7667,73.3833,27.24,66,65,1.92,MV,1733484992
243,nizhniy kuranakh,58.8353,125.4869,-14.59,96,100,2.36,RU,1733484993
244,pauini,-7.7136,-66.9764,23.83,93,100,1.04,BR,1733484994
245,kirkland lake,48.1446,-80.0377,-11.84,79,100,0.51,CA,1733484995
246,mbandaka,0.0487,18.2603,25.2,72,100,1.31,CD,1733484996
247,dakhla,23.6848,-15.958,24.01,35,100,6.69,EH,1733484997
248,buta,2.7858,24.73,35.62,29,78,0.27,CD,1733484998
249,ahwa,20.75,73.6833,28.05,47,4,3.09,IN,1733484999
250,vrangel',42.7297,133.0839,-6.97,48,8,6.78,RU,1733485000
251,tionk essil,12.7856,-16.5217,32.28,14,95,7.04,SN,1733485001
252,worgl,47.4833,12.0667,7.93,70,73,2.31,AT,1733485003
253,sanluri,39.5611,8.8994,14.26,69,98,5.18,IT,1733485004
254,singkawang,0.9,109.0,26.33,85,94,0.45,ID,1733485005
255,aasiaat,68.7098,-52.8699,-19.63,93,97,3.42,GL,1733485006
256,flying fish cove,-10.4217,105.6791,25.82,94,100,5.14,CX,1733485007
257,cambria,35.5641,-121.0808,10.59,78,0,2.24,US,1733484734
258,coquimbo,-29.9533,-71.3436,13.85,76,0,1.54,CL,1733484898
259,pithoragarh,29.5833,80.2167,7.42,61,0,2.72,IN,1733485012
260,la huaca,-4.9117,-80.96,19.74,76,55,3.54,PE,1733485013
261,new norfolk,-42.7826,147.0587,15.51,95,96,1.0,AU,1733485014
262,dodge city,37.7528,-100.0171,-2.64,68,0,4.63,US,1733484845
263,greymouth,-42.4667,171.2,14.28,91,79,0.82,NZ,1733485016
264,el granada,37.5027,-122.4694,12.93,81,0,1.54,US,1733485017
265,dompu,-8.5356,118.4622,23.86,99,100,0.52,ID,1733485018
266,wuxue,29.8506,115.5525,12.7,44,60,0.81,CN,1733485019
267,chukhloma,58.7525,42.6825,-6.42,92,45,2.75,RU,1733485020
268,tual,-5.6667,132.75,28.62,78,100,2.28,ID,1733485021
269,tubarjal,30.4999,38.216,18.79,28,91,7.43,SA,1733485022
270,ceeldheer,3.8488,47.1806,30.17,53,2,9.5,SO,1733485024
271,pangody,65.85,74.4859,-13.2,97,98,2.02,RU,1733485025
272,afaahiti,-17.75,-149.2833,25.71,79,98,8.04,PF,1733485026
273,lampazos de naranjo,27.0167,-100.5167,13.99,93,100,3.16,MX,1733485027
274,port blair,11.6667,92.75,28.02,74,75,2.57,IN,1733485028
275,roma,43.2128,-75.4557,-6.29,82,0,4.12,US,1733484963
276,ancud,-41.8697,-73.8203,9.77,78,99,0.87,CL,1733485031
277,kristiansund,63.1115,7.732,7.36,49,75,4.12,NO,1733485032
278,ar raqqah,35.95,39.0167,17.96,34,76,3.6,SY,1733485033
279,mount gambier,-37.8333,140.7667,18.71,86,70,2.57,AU,1733485034
280,dassa-zoume,7.75,2.1833,34.99,16,5,1.9,BJ,1733485036
281,phan thiet,10.9333,108.1,25.36,91,83,2.64,VN,1733485037
282,savonlinna,61.8699,28.88,-2.97,93,100,5.66,FI,1733485038
283,veraval,20.9,70.3667,27.24,52,75,5.54,IN,1733485039
284,cedeira,43.6797,-8.0209,17.68,70,99,7.6,ES,1733485040
285,tofol,5.3248,163.0078,28.85,81,93,10.34,FM,1733485041
286,labrador city,52.9463,-66.9114,-11.57,87,100,5.66,CA,1733485042
287,hadibu,12.65,54.0333,26.58,73,8,7.46,YE,1733485043
288,ryotsu-minato,38.0833,138.4333,4.12,86,81,7.13,JP,1733485044
289,salinopolis,-0.6136,-47.3561,25.59,78,100,6.69,BR,1733485045
290,fort saskatchewan,53.7168,-113.2187,3.71,80,60,2.06,CA,1733485046
291,macau,22.2006,113.5461,22.06,68,0,3.6,MO,1733485047
292,nova vicosa,-17.8919,-39.3719,29.1,57,28,2.69,BR,1733485049
293,an muileann gcearr,53.5333,-7.35,5.3,90,100,6.45,IE,1733485050
294,badger,64.8,-147.5333,-7.05,91,100,0.0,US,1733485051
295,alesund,62.4723,6.1549,8.08,66,75,4.12,NO,1733485052
296,anupgarh,29.1911,73.2086,21.89,18,0,1.82,IN,1733485053
297,howrah,22.5892,88.3103,26.0,38,0,2.06,IN,1733485054
298,hutang,31.5333,119.4833,9.67,61,72,1.57,CN,1733485055
299,vila velha,-20.3297,-40.2925,27.75,72,20,5.66,BR,1733484888
300,lagoa formosa,-18.7786,-46.4075,26.12,59,87,3.36,BR,1733485057
301,hamilton,39.1834,-84.5333,-8.31,81,0,2.06,US,1733485009
302,al jawf,29.5,38.75,19.71,34,100,6.76,SA,1733485059
303,daru,-9.0763,143.2092,27.23,90,100,4.56,PG,1733485060
304,archangelos,36.2149,28.1149,16.84,85,100,5.56,GR,1733485062
305,barcelos,41.5388,-8.6151,16.85,76,72,1.11,PT,1733485006
306,koungou,-12.7336,45.2042,30.84,66,20,5.14,YT,1733485064
307,mount pearl,47.5166,-52.7813,8.18,96,100,19.03,CA,1733484848
308,prado,-17.3411,-39.2208,27.89,64,57,3.63,BR,1733485066
309,iwanai,42.9744,140.5089,-3.73,74,100,11.12,JP,1733485068
310,eldorado at santa fe,35.5264,-105.9347,-1.25,78,0,0.89,US,1733485069
311,nelson bay,-32.7167,152.15,23.95,92,67,5.36,AU,1733485070
312,lhasa,29.65,91.1,7.13,8,0,2.14,CN,1733485071
313,plettenberg bay,-34.0527,23.3716,23.89,52,84,6.07,ZA,1733485072
314,tahe,52.3333,124.7333,-17.52,86,9,2.97,CN,1733485074
315,luwuk,-0.9516,122.7875,24.36,84,98,1.91,ID,1733485075
316,puerto santa,-8.9906,-78.6456,17.82,91,93,1.64,PE,1733485076
317,guane,22.2025,-84.0875,17.26,92,100,1.98,CU,1733485077
318,ca mau,9.1769,105.15,24.73,95,99,1.76,VN,1733485078
319,rundu,-17.9333,19.7667,39.91,11,52,1.35,NA,1733485079
320,smithers,54.7804,-127.1743,2.18,100,100,0.0,CA,1733485080
321,tabuk,17.4189,121.4443,23.49,96,92,1.63,PH,1733485081
322,dzhetygara,52.1908,61.2006,-8.67,92,96,5.29,KZ,1733485082
323,zhongshu,24.5167,103.7667,9.17,97,97,2.23,CN,1733485083
324,nemuro,43.3236,145.575,0.61,59,34,6.67,JP,1733485084
325,bolotnoye,55.6717,84.3981,-13.27,96,83,3.28,RU,1733485086
326,talcahuano,-36.7167,-73.1167,9.82,93,0,1.03,CL,1733485087
327,waingapu,-9.6567,120.2641,26.58,86,100,3.32,ID,1733485088
328,mumford,5.2618,-0.759,29.66,59,26,4.23,GH,1733485089
329,vilyuysk,63.7553,121.6247,-14.19,95,99,2.76,RU,1733485090
330,rexburg,43.826,-111.7897,-8.01,100,20,2.06,US,1733485091
331,antsohihy,-14.8796,47.9875,33.87,41,6,2.81,MG,1733485092
332,nagqu,31.5,92.0,-4.9,16,0,0.41,CN,1733485093
333,sylva,58.0348,56.7635,-8.04,97,98,1.92,RU,1733485094
334,ashburton,-37.8626,145.0794,21.33,78,100,3.18,AU,1733485095
335,naze,28.3667,129.4833,17.51,60,61,3.67,JP,1733484877
336,bengkulu,-3.8004,102.2655,25.45,89,92,4.57,ID,1733485098
337,ikirun,7.9167,4.6667,34.3,18,13,0.92,NG,1733485099
338,volosovo,59.4333,29.4833,-3.06,85,100,4.12,RU,1733485100
339,brookings,44.3114,-96.7984,-9.0,76,0,2.06,US,1733485094
340,alotau,-10.3069,150.4462,25.27,93,100,0.74,PG,1733485102
341,flin flon,54.7682,-101.865,-13.75,86,100,2.59,CA,1733485103
342,tsetserleg,47.475,101.4542,-12.37,87,14,1.43,MN,1733485104
343,yanam,16.7333,82.2167,25.1,72,38,1.75,IN,1733485105
344,lazaro cardenas,17.9583,-102.2,23.97,87,96,2.62,MX,1733485106
345,falenki,58.3613,51.5946,-11.34,98,79,1.58,RU,1733485107
346,ust'-kut,56.7938,105.7672,-10.58,97,100,2.15,RU,1733485108
347,san clemente del tuyu,-36.3569,-56.7235,19.72,76,100,3.09,AR,1733485109
348,saddiqabad,28.3062,70.1307,24.57,9,0,3.69,PK,1733485111
349,novyy urgal,51.0736,132.5642,-27.7,98,92,0.58,RU,1733485112
350,acarau,-2.8856,-40.12,29.01,63,100,7.15,BR,1733484916
351,minas de marcona,-15.2119,-75.1103,15.3,83,100,4.85,PE,1733485114
352,tateyama,34.9833,139.8667,13.44,61,22,10.35,JP,1733485115
353,revda,56.801,59.9303,-9.18,93,18,3.49,RU,1733485116
354,haiku-pauwela,20.9219,-156.3051,19.56,75,0,3.58,US,1733485117
355,moranbah,-22.0016,148.0466,24.42,72,0,6.96,AU,1733485118
356,sheboygan,43.7333,-87.9334,-9.82,83,27,1.34,US,1733485061
357,swift current,50.2834,-107.8014,2.45,69,0,7.2,CA,1733485120
358,shalqar,47.8333,59.6,-2.19,63,71,5.16,KZ,1733485121
359,motygino,58.1831,94.7592,-6.37,93,100,4.04,RU,1733485123
360,tyukhtet,56.5389,89.3011,-8.64,91,89,3.61,RU,1733485124
361,san luis de la loma,17.2706,-100.8939,23.16,78,5,2.16,MX,1733485125
362,galesong,-5.3166,119.3661,26.13,88,100,3.66,ID,1733485126
363,bangor trident base,47.7227,-122.7145,4.81,95,100,1.34,US,1733485127
364,gopalganj,26.4667,84.4333,19.9,26,0,2.98,IN,1733485128
365,ar rahad,12.7167,30.65,32.99,21,15,4.16,SD,1733485129
366,oranjestad,12.524,-70.027,27.73,78,20,3.6,AW,1733485130
367,tulagi,-9.0996,160.1476,29.74,74,100,6.87,SB,1733485131
368,mossel bay,-34.1831,22.146,23.96,74,98,11.11,ZA,1733485132
369,hithadhoo,-0.6,73.0833,28.03,74,87,3.9,MV,1733485133
370,itoman,26.1247,127.6694,21.01,81,75,6.17,JP,1733485134
371,darwin,-12.4611,130.8418,26.99,85,75,2.57,AU,1733485136
372,kavaratti,10.5669,72.642,27.63,75,41,1.4,IN,1733485137
373,irbit,57.6705,63.071,-7.72,86,9,2.66,RU,1733485138
374,pandan,14.0453,124.1694,26.57,89,88,3.25,PH,1733485139
375,touros,-5.1989,-35.4608,28.46,66,99,6.5,BR,1733485138
376,westport,41.1415,-73.3579,-0.1,57,0,6.69,US,1733484892
377,tralee,52.2704,-9.7026,10.14,87,100,5.14,IE,1733485142
378,aksu,41.1231,80.2644,-0.13,58,91,0.66,CN,1733485144
379,port elizabeth,-33.918,25.5701,26.16,44,0,9.26,ZA,1733485146
380,khandyga,62.6667,135.6,-31.23,100,100,1.32,RU,1733485147
381,rio preto da eva,-2.6994,-59.6997,25.03,93,100,1.79,BR,1733485148
382,la'ie,21.6477,-157.9253,22.81,92,34,6.45,US,1733485149
383,cidreira,-30.1811,-50.2056,24.76,70,68,3.46,BR,1733485150
384,trairi,-3.2778,-39.2689,29.04,60,100,5.48,BR,1733485151
385,arkhangel'sk,64.5401,40.5433,-6.94,93,100,3.0,RU,1733485152
386,wynyard,-41.0,145.7167,17.33,83,100,1.07,AU,1733485153
387,buritis,-15.6178,-46.4233,25.45,58,32,2.67,BR,1733485154
388,lebu,-37.6167,-73.65,12.88,78,27,0.87,CL,1733485155
389,swakopmund,-22.6833,14.5333,17.87,78,37,5.72,NA,1733485156
390,salinas,36.6777,-121.6555,14.33,51,0,2.52,US,1733484907
391,hede,33.7681,120.2517,7.69,60,100,1.61,CN,1733485159
392,ocana,8.2377,-73.356,18.05,88,27,1.73,CO,1733485160
393,douglas,41.3,-96.167,-5.9,65,0,6.17,US,1733485158
394,margate,51.3813,1.3862,8.82,73,32,0.89,GB,1733485162
395,tegueste,28.5167,-16.3167,19.79,76,20,5.81,ES,1733485163
396,santa rosa,14.3122,121.1114,28.38,83,88,4.44,PH,1733485164
397,shenjiamen,29.9576,122.298,10.72,72,97,3.57,CN,1733485166
398,urucui,-7.2294,-44.5561,29.49,49,1,4.79,BR,1733485167
399,vila franca do campo,37.7167,-25.4333,19.23,99,64,2.14,PT,1733485168
400,kaa-khem,51.6833,94.7333,-11.38,94,68,1.62,RU,1733485170
401,baikonur,45.6167,63.3167,0.05,74,41,3.16,KZ,1733485171
402,luganville,-15.5333,167.1667,25.72,82,100,0.33,VU,1733485172
403,bogande,12.9714,-0.1436,31.12,10,13,6.47,BF,1733485173
404,nea ionia,38.0373,23.7595,16.45,89,40,2.24,GR,1733485175
405,wilmore,37.862,-84.6616,-7.5,73,0,1.91,US,1733485176
406,makushino,55.2103,67.2442,-9.99,95,100,4.45,RU,1733485177
407,jayapura,-2.5333,140.7,24.66,89,100,2.64,ID,1733485179
408,nguigmi,14.2495,13.1092,28.65,14,89,4.61,NE,1733485180
409,fale old settlement,-9.3852,-171.2468,28.15,78,21,5.33,TK,1733485181
410,zamora,-4.0692,-78.9567,20.58,96,100,1.22,EC,1733484905
411,atafu village,-8.5421,-172.5159,28.28,76,23,4.38,TK,1733485183
412,axim,4.8699,-2.2405,29.9,60,20,3.59,GH,1733485184
413,eyl,7.9803,49.8164,29.08,56,16,10.36,SO,1733485185
414,jiayuguan,39.8167,98.3,-4.66,58,23,1.26,CN,1733485187
415,padang,-0.9492,100.3543,26.03,82,81,0.91,ID,1733485188
416,saudarkrokur,65.7461,-19.6394,-3.37,92,100,4.85,IS,1733485190
417,tughyl,47.7252,84.2063,-4.21,85,74,2.07,KZ,1733485191
418,gonzaga,44.9498,10.8209,9.41,67,63,3.44,IT,1733485192
419,robore,-18.3333,-59.75,26.05,94,75,3.09,BO,1733485193
420,lubang,13.8584,120.124,29.16,78,97,7.91,PH,1733485194
421,lubango,-14.9172,13.4925,25.24,44,66,1.6,AO,1733485195
422,vorkuta,67.5,64.0,-7.55,93,100,3.91,RU,1733485196
423,wichita falls,33.9137,-98.4934,-0.92,66,0,1.54,US,1733485197
424,arteche,12.2645,125.4048,26.37,90,73,1.92,PH,1733485198
425,new braunfels,29.703,-98.1245,10.08,58,100,6.69,US,1733485014
426,mount isa,-20.7333,139.5,27.87,74,77,1.54,AU,1733485200
427,chester,40.1254,-75.8749,-2.28,61,0,7.2,US,1733485201
428,alice springs,-23.7,133.8833,29.75,54,100,3.09,AU,1733485203
429,sirte,31.2089,16.5887,17.18,62,31,1.74,LY,1733485204
430,aykhal,66.0,111.5,-11.17,93,100,9.34,RU,1733485205
431,mahayag,8.1183,123.4455,25.25,96,97,1.17,PH,1733485206
432,barberton,-25.7884,31.0532,34.3,26,26,4.12,ZA,1733485006
433,kilindoni,-7.9139,39.6668,28.54,71,21,5.18,TZ,1733485208
434,golfito,8.639,-83.166,20.21,97,56,1.13,CR,1733485209
435,esmeraldas,-19.7625,-44.3139,23.26,67,38,2.92,BR,1733485210
436,jining,35.405,116.5814,6.01,40,19,2.71,CN,1733485211
437,la paz,-16.5,-68.15,9.99,80,40,1.03,BO,1733484994
438,menongue,-14.6585,17.691,31.22,24,59,1.92,AO,1733485213
439,pangkalan brandan,4.0238,98.2782,25.07,92,64,1.79,ID,1733485214
440,kourou,5.1552,-52.6478,27.24,71,91,2.66,GF,1733485216
441,egilsstadir,65.2653,-14.3948,-0.05,69,100,4.12,IS,1733485217
442,muntok,-2.0667,105.1833,28.02,78,100,3.37,ID,1733485218
443,durango,24.8333,-104.8333,8.86,60,88,1.62,MX,1733485219
444,abu al matamir,30.9102,30.1744,23.76,32,8,1.75,EG,1733485220
445,pariaman,-0.619,100.12,26.03,79,83,0.4,ID,1733485221
446,laojunmiao,39.8333,97.7333,-8.57,60,18,2.27,CN,1733485222
447,alliance,40.9153,-81.1059,-6.8,88,55,4.18,US,1733485223
448,gulma,12.6423,4.3555,30.91,10,84,5.9,NG,1733485225
449,ust-tsilma,65.441,52.1498,-7.2,89,79,4.08,RU,1733485226
450,imperatriz,-5.5264,-47.4917,26.03,89,20,1.54,BR,1733485195
451,qandala,11.472,49.8728,26.72,67,21,5.5,SO,1733485229
452,antsiranana,-12.2787,49.2917,32.42,43,20,6.17,MG,1733485230
453,jalpan,21.2333,-99.4833,16.37,97,90,0.97,MX,1733485231
454,lorengau,-2.0226,147.2712,28.5,75,100,4.94,PG,1733485232
455,santuario,6.1383,-75.2642,13.07,99,75,1.03,CO,1733485233
456,prince rupert,54.3161,-130.3201,9.05,88,100,13.38,CA,1733485234
457,kuanda,56.3161,116.0806,-24.32,96,99,0.24,RU,1733485235
458,okakarara,-20.5833,17.4333,37.13,9,1,1.61,NA,1733485236
459,dahlonega,34.5326,-83.9849,-4.09,67,46,1.53,US,1733485237
460,maumere,-8.6199,122.2111,25.67,91,100,3.84,ID,1733485238
461,brovary,50.5,30.7667,1.01,95,90,4.41,UA,1733485239
462,souillac,-20.5167,57.5167,28.21,61,40,6.17,MU,1733485241
463,tobelo,1.7284,128.0095,26.8,84,74,2.45,ID,1733485242
464,midland,31.9974,-102.0779,6.14,61,100,5.14,US,1733485104
465,jamestown,42.097,-79.2353,-7.2,79,100,5.14,US,1733485010
466,sterling,39.0062,-77.4286,-1.84,64,20,4.63,US,1733485245
467,tazacorte,28.629,-17.9293,20.54,73,40,4.12,ES,1733485246
468,tabas,33.5959,56.9244,15.88,15,36,4.8,IR,1733485248
469,sumbe,-11.2061,13.8437,27.3,76,89,3.07,AO,1733485249
470,satuek,15.297,103.2919,29.31,51,0,1.03,TH,1733485250
471,siniscola,40.5719,9.6922,14.94,73,99,4.49,IT,1733485251
472,chiang khong,20.2613,100.4046,23.75,77,26,0.72,TH,1733485252
473,kili,5.6439,169.1211,28.32,83,86,9.73,MH,1733485253
474,novogrudok,53.6,25.8333,-2.34,74,100,6.11,BY,1733485255
475,starozhilovo,54.2254,39.916,-6.15,84,100,5.02,RU,1733485256
476,arar,30.9753,41.0381,15.01,31,40,3.6,SA,1733485257
477,ajdabiya,30.7554,20.2263,18.04,51,90,4.78,LY,1733485258
478,puerto deseado,-47.7503,-65.8938,7.69,49,18,6.89,AR,1733485259
479,wewak,-3.5534,143.6268,26.65,86,93,3.1,PG,1733485260
480,verkhniye sergi,56.6469,59.5556,-10.66,97,58,2.09,RU,1733485262
481,nar'yan-mar,67.6713,53.087,-2.9,90,89,7.54,RU,1733485264
482,la sierpe,21.7717,-79.2684,17.65,85,86,3.37,CU,1733485265
483,es castell,39.8795,4.2854,18.38,63,20,3.6,ES,1733485266
484,puerto aysen,-45.4,-72.7,6.88,98,99,1.35,CL,1733485267
485,santiago de chuco,-8.15,-78.1833,10.54,78,44,0.66,PE,1733485268
486,polyarnyy,69.1989,33.4478,-6.13,88,99,7.6,RU,1733485269
487,mana,5.6592,-53.7767,26.8,70,78,3.59,GF,1733485270
488,rio grande,-32.035,-52.0986,23.04,79,100,5.37,BR,1733485271
489,dubbo,-32.25,148.6167,24.07,83,75,4.12,AU,1733485272
490,sanica,44.6142,16.6411,9.2,71,100,0.56,BA,1733485273
491,sakakah,29.9697,40.2064,17.76,27,100,6.42,SA,1733485274
492,kruisfontein,-34.0033,24.7314,24.35,43,92,11.04,ZA,1733485276
493,ylitornio,66.3089,23.6773,0.18,96,100,5.62,FI,1733485277
494,marsa alam,25.0757,34.8918,23.86,50,62,4.49,EG,1733485278
495,pisco,-13.7,-76.2167,19.03,82,100,2.06,PE,1733485279
496,machico,32.7,-16.7667,22.06,86,75,5.14,PT,1733485280
497,cabedelo,-6.9811,-34.8339,24.37,72,77,7.14,BR,1733485281
498,basudebpur,21.1353,86.7386,22.66,63,2,3.59,IN,1733485282
499,pocatello,42.8713,-112.4455,-4.9,90,22,2.22,US,1733485283
500,chegdomyn,51.1167,133.0167,-26.68,97,83,1.04,RU,1733485284
501,paracuru,-3.41,-39.0306,29.44,60,99,6.24,BR,1733485285
502,abu qurqas,27.9312,30.8384,21.86,36,61,1.27,EG,1733485286
503,gargalianoi,37.0667,21.6333,15.57,72,100,4.17,GR,1733485287
504,forres,57.6113,-3.6108,5.12,78,20,4.12,GB,1733485289
505,bela,25.9333,81.9833,19.58,25,7,2.84,IN,1733485290
506,cururupu,-1.8283,-44.8683,27.52,69,98,2.4,BR,1733485291
507,hobyo,5.3505,48.5268,28.45,61,2,10.01,SO,1733485292
508,belyy yar,53.6039,91.3903,-11.06,92,40,1.0,RU,1733485293
509,usinsk,65.9939,57.5281,-8.05,94,100,7.36,RU,1733485245
510,dhuusamarreeb,5.535,46.3861,33.88,24,16,6.78,SO,1733485295
511,selfoss,63.9331,-20.9971,-6.64,86,11,2.13,IS,1733485296
512,anori,-3.7728,-61.6442,25.01,92,99,0.48,BR,1733485297
513,waddan,29.1614,16.139,13.44,72,77,7.14,LY,1733485298
514,al hazm,16.1641,44.7769,26.45,15,2,4.29,YE,1733485299
515,okuta,9.2167,3.1833,32.44,14,96,1.92,NG,1733485300
516,vadso,70.0744,29.7487,-3.91,86,75,3.6,NO,1733485302
517,sola,-13.8833,167.55,26.9,78,100,6.42,VU,1733485303
518,caleta de carquin,-11.0925,-77.6267,19.11,90,89,2.32,PE,1733485304
519,misratah,32.3754,15.0925,17.68,78,100,9.89,LY,1733485073
520,recani,31.2846,-4.2688,18.43,27,4,1.19,MA,1733485307
521,moyynkum,44.2914,72.9469,2.09,71,100,1.91,KZ,1733485308
522,den burg,53.0542,4.7972,9.99,81,75,12.35,NL,1733485309
523,sungai raya,0.7,108.9,26.41,86,85,0.9,ID,1733485310
524,bereznik,62.8551,42.7072,-8.21,91,34,2.73,RU,1733485312
525,santo antonio do ica,-3.1022,-67.9397,24.3,97,100,0.45,BR,1733485313
526,alaghsas,17.0187,8.0168,26.94,12,0,10.29,NE,1733485314
527,coronel oviedo,-25.4167,-56.45,27.23,69,95,2.91,PY,1733485315
528,piraziz,40.9333,38.1333,11.9,82,40,1.03,TR,1733485316
529,groningen,53.25,6.75,10.04,86,100,10.8,NL,1733485317
530,cruzeiro do sul,-29.5128,-51.9853,30.85,64,77,4.97,BR,1733485318
531,patacamaya,-17.2333,-67.9167,12.36,42,83,2.52,BO,1733485319
532,chibougamau,49.9168,-74.3659,-13.21,85,100,6.17,CA,1733485320
533,posto fiscal rolim de moura,-13.0833,-62.2667,26.27,79,83,1.25,BR,1733485321
534,inderbor,48.55,51.7833,-1.68,54,28,4.97,KZ,1733485322
535,yichun,47.7,128.9,-15.01,88,79,5.39,CN,1733485323
536,juneau,58.3019,-134.4197,8.0,95,100,8.75,US,1733485325
537,el haouaria,37.05,11.0144,17.01,56,39,8.24,TN,1733485326
538,vanimo,-2.6741,141.3028,26.38,88,100,1.74,PG,1733485327
539,rio gallegos,-51.6226,-69.2181,6.03,61,20,4.63,AR,1733485328
540,anshun,26.25,105.9333,5.23,90,100,3.21,CN,1733485329
541,port-gentil,-0.7193,8.7815,29.98,74,40,5.66,GA,1733485330
542,tera,14.0078,0.7531,31.2,10,96,5.43,NE,1733485331
543,paphos,34.7667,32.4167,21.88,49,100,1.03,CY,1733485332
544,princeville,45.7668,-61.2985,1.97,81,75,7.2,CA,1733485281
545,hunchun,42.8675,130.3581,-7.18,50,7,4.67,CN,1733485334
546,pacific grove,36.6177,-121.9166,14.1,89,0,2.68,US,1733485335
547,sudak,44.85,34.9667,5.07,84,92,2.19,UA,1733485336
548,fada,7.25,4.0667,33.37,38,3,1.54,NG,1733485338
549,coahuayana de hidalgo,18.7,-103.6583,21.81,92,38,1.48,MX,1733485339
550,ugep,5.8086,8.0812,35.52,31,46,1.29,NG,1733485340
551,lethbridge,49.7,-112.8186,5.06,60,0,9.26,CA,1733485323
552,terrace,54.5163,-128.6035,7.95,100,100,8.75,CA,1733485342
553,linqiong,30.4159,103.4609,12.29,62,98,1.14,CN,1733485344
554,show low,34.2542,-110.0298,-1.7,77,0,0.0,US,1733485345
555,shatrovo,56.5167,64.6333,-8.54,90,7,3.15,RU,1733485346
556,griffith,41.5284,-87.4237,-9.71,82,0,3.09,US,1733485347
557,mongo,12.1844,18.693,33.37,12,0,2.24,TD,1733485348
558,dryden,49.7833,-92.7503,-10.84,85,100,2.57,CA,1733485302
559,pemangkat,1.1667,108.9667,26.94,83,99,0.61,ID,1733485351
560,bairnsdale,-37.8333,147.6167,20.03,80,100,2.85,AU,1733485352
561,williams lake,52.1415,-122.1445,1.76,88,100,6.17,CA,1733485073
562,kyaikkami,16.08,97.5675,28.0,76,2,3.42,MM,1733485355
563,vilyuchinsk,52.9306,158.4028,-7.85,82,19,4.68,RU,1733485356
564,bontang,0.1333,117.5,27.69,80,94,2.09,ID,1733485357
565,tolanaro,-25.0319,46.9987,33.04,66,20,9.77,MG,1733485358
566,kingston,17.997,-76.7936,23.98,91,37,1.59,JM,1733485359
567,churapcha,62.0025,132.4325,-26.73,99,100,2.02,RU,1733485360
568,kalengwa,-13.4659,25.0027,36.06,19,22,1.75,ZM,1733485362
569,kosonsoy,41.2561,71.5508,3.03,47,5,1.94,UZ,1733485363
570,bayganin,48.6947,55.8742,-3.41,64,4,3.7,KZ,1733485364
571,nizhniy ingash,56.2,96.53,-7.26,93,98,2.05,RU,1733485365
572,alpena,45.0617,-83.4327,-5.82,92,100,3.09,US,1733485366
573,obock,12.25,43.0833,25.1,51,0,7.2,DJ,1733485367
574,el calafate,-50.3408,-72.2768,6.7,63,26,2.84,AR,1733485257
575,nyurba,63.2842,118.3319,-10.85,93,100,4.15,RU,1733485369
576,prineville,44.2999,-120.8345,-4.61,100,75,1.54,US,1733485370
577,popondetta,-8.7537,148.2534,24.07,94,100,1.08,PG,1733485371
578,luderitz,-26.6481,15.1594,23.06,51,26,11.34,NA,1733485372
579,al faw,29.9776,48.4741,24.3,26,13,4.35,IQ,1733485374
